,business_id,business_name,business_address,business_city,business_state,business_latitude,business_longitude,stars,review_counts,is_open,categories
0,pQeaRpvuhoEqudo3uymHIQ,The Empanadas House,404 E Green St,Champaign,IL,40.1104457,-88.2330726,4.5,5,1,"Ethnic Food, Food Trucks, Specialty Food, Imported Food, Argentine, Food, Restaurants, Empanadas"
1,-LfTBo0oa_uD454ScEW2XA,Merry Ann's Diner,1 E Main St,Champaign,IL,40.1181331448,-88.242899908,3.0,47,0,"Restaurants, Diners, Sandwiches, Breakfast & Brunch, American (Traditional)"
2,R32Yh0XxxanldkIp11fuRg,BoBo's BBQ,1511 W Springfield Ave,Champaign,IL,40.1125152,-88.2715751,3.5,45,1,"Hot Dogs, Restaurants, Barbeque"
3,uJIIgBmcIn-Ye-anrqK0DQ,Dunkin',1302 N. Prospect Ave,Champaign,IL,40.1286526,-88.2574113,2.0,18,1,"Donuts, Food, Coffee & Tea"
4,4Vig7oCo9P-j2OnPUfaXCA,Papa John's Pizza,1307 E Florida Ave,Urbana,IL,40.0980033,-88.1927509,2.0,5,1,"Pizza, Restaurants"
5,wTBfpTjdWG_zoE62B_bLtA,Monical's Pizza,102 W Vine St,Tolono,IL,39.98906,-88.2624359,3.0,10,1,"Italian, Pizza, Restaurants"
6,Z7r_FJXEyfyvVsyv2y7gFQ,Cactus Grill,"1405 S Neil St, Ste C",Champaign,IL,40.0996476,-88.2447683,4.0,60,1,"Mexican, Restaurants, Tex-Mex"
7,VHsNB3pdGVcRgs6C3jt6Zg,Dublin O'Neil's,301 N Neil St,Champaign,IL,40.1190386,-88.2438816,3.5,130,0,"Restaurants, Irish"
8,ZMcbVIEXsLO7j1Q1GXKPSw,A-Ri-Rang,607 S Wright St,Champaign,IL,40.1112117,-88.2290795,4.0,60,1,"Korean, Restaurants"
9,BQMVcJQV70gUQjwi7-MrSg,Gustoso Authentic Italian Pasta and Pizza,124 E Sangamon Ave,Rantoul,IL,40.3105909,-88.1577955,4.0,5,0,"Pizza, Italian, Restaurants"
10,-fiUXzkxRfbHY9TKWwuptw,DESTIHL Restaurant & Brew Works,301 N Neil St,Champaign,IL,40.1183372538,-88.2437766095,4.0,712,1,"Gluten-Free, Food, American (New), Restaurants, Breweries, Beer, Wine & Spirits, Breakfast & Brunch, Brewpubs"
11,NEVA0IYbawceL6kz5v5DAw,Kofusion,1 E Main St,Champaign,IL,40.1185666238,-88.2432330386,3.5,287,1,"Sushi Bars, Asian Fusion, Restaurants"
12,d51qbs6CitHbFD--G-AEVw,Shanghai 1938,2504 Village Green Pl,Champaign,IL,40.0822044585,-88.2959151641,3.0,22,0,"Chinese, Restaurants"
13,TEXUVhF-G_v2Sxwqti8HQA,Old Chicago,1910 N Neil St,Champaign,IL,40.139982,-88.244108,3.0,96,1,"Breweries, Food, American (Traditional), Salad, Pizza, Beer Bar, Bars, Restaurants, Nightlife, Sports Bars"
14,4cCMR1kxIJqdJ8klLffmqg,Friar Tuck Beverage,1333 Savoy Plaza Ln,Savoy,IL,40.0708796478,-88.2515859604,4.0,31,1,"Beer, Wine & Spirits, Beverage Store, Food"
15,GEpIV65f4afQHlL-yxC3wA,Black Rock Pizza,300 S Broadway Ave,Urbana,IL,40.110634,-88.207179,4.0,5,0,"Restaurants, Pizza"
16,WAAYgXdq-1zdo5Je-pq3kg,Columbia Street Roastery By Herriott's,24 Columbia St,Champaign,IL,40.1213022,-88.2420491,4.5,30,1,"Coffee Roasteries, Shopping, Brewing Supplies, Grocery, Food, Coffee & Tea"
17,9MnbQg7kfb_WgxoV0hXKSQ,Black Dog Smoke & Ale House,201 N Broadway Ave,Urbana,IL,40.1138182155,-88.2076892527,4.5,831,1,"Barbeque, Restaurants, American (Traditional), Bars, Nightlife, Pubs"
18,ZjJzuxjpOTAPWTFbaX06ew,Subway Restaurants,"703 Eastwood Ctr Dr, Ste A",Mahomet,IL,40.1958205,-88.3981644,2.5,12,1,"Restaurants, Sandwiches, Fast Food"
19,W05-iqQIJtf_OAcE2KWAcQ,Walgreens,220 S Century Blvd,Rantoul,IL,40.3088563,-88.1563211,3.0,4,1,"Cosmetics & Beauty Supply, Photography Stores & Services, Beauty & Spas, Drugstores, Convenience Stores, Food, Shopping"
20,F_xI6cK4Om1O0ilWNLWVmw,Dunkin',402 S Century Blvd,Rantoul,IL,40.3060192,-88.1562125,3.0,8,1,"Food, Donuts, Coffee & Tea"
21,ObNQVg_ohRVLex4ppmMC5w,Sonic Drive-In,101 Calvin St,Savoy,IL,40.0583619,-88.251398,3.5,13,1,"Fast Food, Food, Ice Cream & Frozen Yogurt, Burgers, Restaurants"
22,Ah4i15g8Ow_zphzcpulTxQ,The Bread Company,706 S Goodwin Ave,Urbana,IL,40.1067362,-88.2236159,4.0,166,1,"Bakeries, American (New), Modern European, Food, Restaurants, Sandwiches, Delis"
23,WU7HnTim3UgqdtpKCavtOw,Los Zarapes,"840 Eastwood Dr, Ste 12",Mahomet,IL,40.196776,-88.396111,4.5,11,1,"Mexican, Restaurants"
24,iLxG2Oo8HNSZFvJvba4W6g,El Toro Mexican Restaurant,723 S Neil St,Champaign,IL,40.1071261,-88.243912,3.0,99,1,"Restaurants, Mexican"
25,dvMHcBgCdy72ikzEPTr7ag,Market at the Square,401 S Vine St,Urbana,IL,40.109549116,-88.2053494694,4.5,34,1,"Farmers Market, Food"
26,OyBStpjF5e_iRCMXflFasQ,Evo Cafe,711 S 6th St,Champaign,IL,40.1094391,-88.2306035,2.5,61,1,"Restaurants, Food, Seafood, Szechuan, Chinese, Coffee & Tea"
27,REpKWYvpkE0O27AMf1iNIg,YoYo's,104 S Lombard St,Mahomet,IL,40.193398,-88.39988,4.5,12,1,"Food, Ice Cream & Frozen Yogurt"
28,FZ6nk9Fg27KMgt7oiB0DGA,Pies by Inge,212 W Washington St,Monticello,IL,40.025688,-88.5731549,5.0,5,1,"Bakeries, Desserts, Cupcakes, Restaurants, Food"
29,OS78OVr7cCIZ5eAFGHZzwg,Mitsu&Tsaōcaa,608 S 6th St,Champaign,IL,40.1108174,-88.2301846,4.0,10,1,"Lounges, Bars, Food, Nightlife, Hot Pot, Bubble Tea, Restaurants"
30,asCPMMAA1wW3GJvrPA4fTA,Tang Dynasty,"Lincoln Square Mall, 300 S Broadway Ave",Urbana,IL,40.1105839,-88.2070866,3.0,18,0,"Restaurants, Chinese"
31,Gn68S8dMawWtjaiNNAHQbQ,Spaghetti Shop,1325 N Dunlap Ave,Savoy,IL,40.07145,-88.249365,2.5,3,0,Restaurants
32,_n5wggIEfBzCUepjgvHXAQ,Sushi Ichiban,619 S Wright St,Champaign,IL,40.1108158,-88.2291353,3.0,71,1,"Sushi Bars, Japanese, Restaurants"
33,sYf2auhosrx8trbyP9nGyw,DP Dough,33 E Green St,Champaign,IL,40.1097629,-88.2408378,3.0,63,1,"Pizza, Restaurants, Fast Food"
34,oD1PPb-TfMIkkg77u1zCAw,Salad Meister,"601 S 6th St, Ste 104",Champaign,IL,40.1111668574,-88.2305980101,4.5,41,1,"Wraps, Restaurants, Salad"
35,kBgpdaS9joBXioj89zo1QA,El Toro,1104 N Cunningham Ave,Urbana,IL,40.123643,-88.200627,3.5,15,0,"Mexican, Restaurants"
36,XbHxWOciYlBhJOjKRQbo9g,Meijer,2401 N Prospect Ave,Champaign,IL,40.145803,-88.260311,3.0,60,1,"Health & Medical, Restaurants, Bakeries, Pharmacy, Grocery, Food, Delis, Electronics, Toy Stores, Shopping"
37,8k2l-fbaeQU9lVG4oRgxUw,Prairie Fire Restaurant,100 Trade Centre Dr,Champaign,IL,40.097136,-88.245695,3.0,32,0,"American (New), Restaurants, Local Flavor"
38,y-xy2Bp2k7CoIYUKFjKUFg,Sugar By Sarah,306 W Springfield Ave,Urbana,IL,40.112574,-88.211349,4.0,8,1,"Cupcakes, Desserts, Macarons, Food, Specialty Food"
39,RO8_riptsSLrFRNs08vObA,Rich's Family Restaurant,305 W Ellen St,Ogden,IL,40.116761,-87.959619,3.0,14,1,"Restaurants, American (New), Breakfast & Brunch"
40,cFp-Kr831uIA3F6o5aeV2Q,Sliders,616 E Green St,Champaign,IL,40.1102406,-88.2290836,2.0,13,0,"Food, Restaurants, Burgers"
41,EVZumrOiqpMhvrscukkzBQ,Hen House Family Restaurant,74 State Rt 47,Mahomet,IL,40.1963847713,-88.3980202674,3.5,30,1,"American (Traditional), Restaurants"
42,5bTjUBhGbild5tuzfAmIJg,Denny's,702 W Town Center Blvd,Champaign,IL,40.1432615061,-88.2547938824,2.0,66,1,"Restaurants, Diners, Breakfast & Brunch, Comfort Food, American (Traditional)"
43,5-Z7VmiTqD4ycnrxfBJGmQ,Monical's Pizza,703 N 3rd St,Saint Joseph,IL,40.1183397711,-88.0414053025,3.0,4,1,"Italian, Restaurants, Pizza, Sandwiches"
44,a3hjBPsnpcTpcquQXLeS0w,Dragon Fire Pizza,,Champaign,IL,40.1164204,-88.2433829,4.5,37,1,"Food Trucks, Italian, Food, Restaurants, Pizza"
45,RwMlwusAtxZc5a3ZYduulg,Penn Station,605 S 6th St,Champaign,IL,40.1107888,-88.2306384,3.0,15,0,"Sandwiches, Cheesesteaks, American (New), Restaurants"
46,-XH3-e3jDVdjHJq7GfNY7w,Asian Taste Restaurant,502 E John St,Champaign,IL,40.1092811348,-88.2313949615,3.5,34,1,"Vietnamese, Chinese, Restaurants"
47,tjM2CZqRJ17oFapBTmGovw,Pancheros Mexican Grill,"102 E University Ave, Ste B",Urbana,IL,40.1168476,-88.2070456,2.5,43,1,"Mexican, Restaurants"
48,-Jhlh8Scjy669NdtCfKSSg,V Picasso,122 N Neil St,Champaign,IL,40.117237,-88.2431919,3.5,124,0,"Wine Bars, Event Planning & Services, Farmers Market, Bars, Food, Tapas Bars, Venues & Event Spaces, Nightlife, Breakfast & Brunch, Restaurants, American (New), Sandwiches, American (Traditional)"
49,lZ0W0-pQyS35ahsrZezNiw,Natural Gourmet,2225 S Neil St,Champaign,IL,40.086876,-88.248053,4.5,4,1,"Specialty Food, Food, Health Markets, Thai, Restaurants"
50,CKqHfvcqx73-Uz0xGMHL6Q,Wingin Out,301 E Green St,Champaign,IL,40.1099627,-88.2351409,2.5,53,1,"Restaurants, Chicken Wings, Fast Food, American (New)"
51,t_yiQnxUDdPPCN2z4QyezA,Golden Harbor Authentic Chinese Cuisine,505 S Neil St,Champaign,IL,40.1110535,-88.2441408,4.5,430,1,"Restaurants, Chinese, Taiwanese, Dim Sum"
52,EVkytEhlC1nswqmgrHdviw,Bo Bo China,404 E Green St,Champaign,IL,40.1104457,-88.2330726,2.5,43,1,"Chinese, Restaurants"
53,KUPKiomUAHyxBs_Lxeq4Vw,Walgreens,1801 Philo Rd,Urbana,IL,40.096244,-88.1915515,1.5,4,1,"Beauty & Spas, Cosmetics & Beauty Supply, Convenience Stores, Food, Photography Stores & Services, Drugstores, Shopping"
54,odFzgrbzkCuWLTPWbYHdkw,English Hedgerow,406 N Lincoln Ave,Urbana,IL,40.1160324,-88.2190133,4.5,5,0,"Caterers, Event Planning & Services, Sandwiches, Restaurants, Florists, Shopping, Flowers & Gifts"
55,Piw4Xr1wNyL4lgmwLZ2eTg,Jet's Pizza,"1907 W Springfield Ave, Ste A",Champaign,IL,40.1124481,-88.2780062,3.5,13,1,"Restaurants, Pizza"
56,rf8x3ZTUwzmRUyJgoIZllQ,Spicy Tang,611 E Green St,Champaign,IL,40.1101814367,-88.2296706364,3.0,12,0,"Chinese, Restaurants"
57,wxxn-2vEWky9ROitqfYFzw,Village Inn Pizza,1901 S High Cross Rd,Urbana,IL,40.0927251,-88.1635162,2.0,7,0,"Restaurants, Pizza"
58,vVdY2qDO7dkUrU8LXYZ1uA,Green Jade,1109 W Windsor,Champaign,IL,40.0831798963,-88.2643084814,4.0,38,1,"Seafood, Chinese, Restaurants"
59,zV_aclADLjx2KOql9F_FTw,Crepe Cafe,"313 E Green St, Ste 5",Champaign,IL,40.109986,-88.233777,3.0,4,0,"Creperies, Desserts, Specialty Food, Ice Cream & Frozen Yogurt, Restaurants, Food"
60,3XUH9aFxt4vU9Pzi5aBtow,Domino's Pizza,520 S Tanner St,Rantoul,IL,40.3040827569,-88.1591145667,1.5,6,1,"Pizza, Chicken Wings, Sandwiches, Restaurants"
61,5uvf3QpmrdU2aiqmF4278A,Bob Evans,1813 N Neil St,Champaign,IL,40.1375355954,-88.2444405556,2.5,44,1,"American (Traditional), Hotels & Travel, Bed & Breakfast, Comfort Food, Breakfast & Brunch, Salad, Restaurants"
62,bvZHCeHIOMMzIIANFl2zEA,C & C Kitchen,107 E Sangamon Ave,Rantoul,IL,40.3106540911,-88.1585830406,4.5,35,0,"Sandwiches, Breakfast & Brunch, Restaurants, Delis, Food, Cafes, Coffee & Tea"
63,fl2TPNWrchkCbNEg0utjvw,Steak ’n Shake,2009 Kenyon Rd,Urbana,IL,40.1332077785,-88.198607,2.0,26,1,"Burgers, American (New), Food, Ice Cream & Frozen Yogurt, Restaurants, American (Traditional), Diners, Fast Food, Breakfast & Brunch"
64,aGrdbIsBr28EegRnk8fRcw,Walmart Supercenter,845 Broadmeadow Rd,Rantoul,IL,40.3055949,-88.178841,2.0,6,1,"Electronics, Drugstores, Tires, Fashion, Food, Department Stores, Discount Store, Shopping, Mobile Phones, Automotive, Grocery"
65,39Sa6I5Bf6hN1KstkpNHbg,"B. Lime, A Green Store",12 E Washington St,Champaign,IL,40.1200226,-88.2429257,4.5,5,0,"Shopping, Fashion, Home & Garden, Pets, Pet Stores, Home Decor, Specialty Food, Food, Accessories, Children's Clothing"
66,gZtJyb2oEpwo1rnovDVPfA,Intermezzo Café,500 S Goodwin Ave,Urbana,IL,40.108,-88.222501,3.5,10,1,"Food, Bakeries, Restaurants, American (Traditional)"
67,9A1C1f0m4nQltQrOOTl-Kw,Orange & Brew,1201 S Neil St,Champaign,IL,40.1031471749,-88.2442199019,2.5,42,0,"American (New), Nightlife, Restaurants, Bars"
68,3I3gl-WS7CBa41A4BDA7yw,Broadway Food Hall,401 N Broadway Ave,Urbana,IL,40.1152246,-88.2081494,4.5,52,1,"Hawaiian, American (Traditional), Restaurants, Food Court"
69,dVBp-ayxdvwG95BYfqKwDw,Art Mart,127 Lincoln Sq,Urbana,IL,40.1112662,-88.2071884,4.5,16,0,"Kitchen & Bath, Home & Garden, Art Supplies, Arts & Crafts, Food, Art Galleries, Shopping, Specialty Food, Arts & Entertainment"
70,nsSfCKW9KDB4COj9bzXApw,Red Lobster,1901 N Prospect Ave,Champaign,IL,40.1384284,-88.2586279,3.0,68,1,"American (Traditional), Seafood, Restaurants"
71,VvM5lRDU3y37XjuYugBaRA,Oberweis Ice Cream and Dairy Store,1905 S Neil St,Champaign,IL,40.0929568,-88.2460368509,3.5,14,1,"Ice Cream & Frozen Yogurt, Food, Desserts, Juice Bars & Smoothies"
72,r_QcMIgY2zxdcV40kK_rxw,Applebee's Grill + Bar,2121 N Prospect,Champaign,IL,40.142141,-88.258452,2.0,44,1,"American (Traditional), Bars, Sports Bars, Burgers, Steakhouses, Nightlife, Restaurants"
73,wpDJUu8Ty_eyQJENUy7fIw,Smoky's House BBQ,"1333 Savoy Plaza Ln, Ste 8",Savoy,IL,40.0713235719,-88.2517381982,3.5,69,1,"Chicken Wings, Restaurants, Barbeque"
74,MfJSKP5HRllfts13MiKs1g,Flying Machine Avionics,202 S 1st St,Champaign,IL,40.1152272,-88.2384169,4.5,40,1,"Food, Coffee & Tea, Coffee Roasteries, Restaurants"
75,z-Q3uNXOjr7iYpl9kexFzQ,Harvest Market,2029 South Neil St,Champaign,IL,40.0906455272,-88.2477702837,4.0,52,1,"Grocery, Food"
76,aoPNxrEMG7aFzEuRjMy5Vg,Eighty-Eight Broadway,138 Lincoln Sq,Urbana,IL,40.1112551,-88.2071686,2.5,3,0,"Food, Bars, Nightlife"
77,ltqvLrYq9QjeQjQ1NlqLcA,Ming Garden,1804 Sangamon Dr,Champaign,IL,40.1025734113,-88.277292841,3.0,18,1,"Restaurants, Chinese"
78,5gndAzF9MGyff9Ye73jGkg,Philo Tavern,101 W Washington St,Philo,IL,40.006779,-88.158218,3.0,16,1,"American (Traditional), Restaurants"
79,u8C8pRvaHXg3PgDrsUHJHQ,Papa Del's Pizza,1201 S Neil St,Champaign,IL,40.1032417,-88.2441637,3.5,440,1,"Food, Food Delivery Services, Sandwiches, Event Planning & Services, Restaurants, Pizza, Party & Event Planning, Salad"
80,cGuUEFw374zfpr3Cp8ywJw,Shanghai 1938,200 S Matthews,Urbana,IL,40.1108998121,-88.225634608,2.0,4,1,"Restaurants, Chinese, Food Stands"
81,FZFGv8vlqkZiejzUtSn76g,Star火BBQ,1209 Savoy Plaza Ln,Savoy,IL,40.069644659,-88.2517614046,3.5,23,1,"Barbeque, Restaurants, Korean, Hot Pot"
82,ZvSy8yaly9Aeh64Qm4Dsfw,Red Cape Hot Pot,"112 E Green St, Ste A",Champaign,IL,40.1104327,-88.237485,3.5,18,1,"Hot Pot, Restaurants"
83,sjVVGhnLJrcEq0ErUL168w,Domino's Pizza,1108 N Cunningham Ave,Urbana,IL,40.124186,-88.2004984,2.5,6,1,"Chicken Wings, Pizza, Restaurants, Sandwiches"
84,MQ-xcuUXXBYvrXzy7BmOFw,Hooters,1706 State St,Champaign,IL,40.095434,-88.2462308201,2.0,49,1,"Chicken Wings, Sports Bars, Bars, American (Traditional), Restaurants, Nightlife"
85,ckdGk8ForF9zEczmu4-tTA,Strawberry Fields,306 W Springfield Ave,Urbana,IL,40.1125537,-88.2113465,3.0,24,1,"Grocery, Specialty Food, Food, Coffee & Tea, Health Markets, Bakeries, Vitamins & Supplements, Shopping, Organic Stores, Cafes, Restaurants"
86,Mc9sMBVNi53lqxHLCiLWiA,Taco Bell,"2000 N. Neil Street, Space 706",Champaign,IL,40.137098,-88.243455,2.5,6,0,"Fast Food, Tex-Mex, Mexican, Restaurants"
87,J2mmkwPiTQg3aCXP3afiJQ,Sticky Rice,415 N Neil St,Champaign,IL,40.1194276897,-88.2438507269,4.5,66,1,"Restaurants, Noodles, Thai, Laotian"
88,TljiUnO5i-9_iH5x-mWZ7A,Sidney Dairy Barn,311 W Main St,Sidney,IL,40.025767,-88.077981,4.5,23,1,"Food, Ice Cream & Frozen Yogurt"
89,x792tXM8gIf6-nU2IiiAEQ,Five Guys Burgers & Fries,913 W Marketview Dr,Champaign,IL,40.1377293292,-88.2586995927,3.0,23,0,"Food, Burgers, Restaurants"
90,fwJyji2z5FNCCC7CaOzVJw,Pizza Hut,2020 Lon Dr,Rantoul,IL,40.3124795,-88.1287523,2.5,3,0,"Italian, Chicken Wings, Restaurants, Pizza"
91,P6ZV903fV-rD9pYO7WM0Pw,Pekara,811 W Springfield Ave,Champaign,IL,40.1124122,-88.2573353,4.0,24,1,"Restaurants, Food, Bakeries, Coffee & Tea, Sandwiches"
92,cLrsYJSVjDQbaVikQSpnbQ,Green Street Cafe,35 E Green St,Champaign,IL,40.1099022,-88.2410371,3.0,12,1,"Bars, Hookah Bars, Restaurants, Nightlife, Sports Bars, Pool Halls, Mediterranean, Dive Bars, Greek"
93,LW21U6m6axC2lCLYc0fFSA,Cream & Flutter,114 N Walnut St,Champaign,IL,40.116833,-88.242223,3.5,194,0,"Ice Cream & Frozen Yogurt, Cupcakes, Coffee & Tea, Event Planning & Services, Food, Caterers, Bakeries"
94,wCB9mquz6W0ZuO5pPZXeDg,Lao Sze Chuan Chinese Restaurant,"608 E University Ave, Ste 105",Champaign,IL,40.1166544,-88.229763,3.5,61,1,"Chinese, Restaurants, Szechuan"
95,BU44MZzM82yPiBhMyj9r7w,Sarku Japan,2000 N Neil St,Champaign,IL,40.1420381203,-88.2441927152,2.5,13,1,"Japanese, Restaurants"
96,x4eptNxzj43ihrk0nZB_OA,Montana Mike's,1601 N Cunningham Ave,Urbana,IL,40.128228,-88.199861,3.0,12,0,"Restaurants, Steakhouses"
97,7nZ88t3E3hSgYoAvD1Hakw,Cakes By Lori,202 Eastwood Dr,Mahomet,IL,40.1961495,-88.3951619,5.0,4,1,"Custom Cakes, Bakeries, Food"
98,HLTy85yV2H8Wj3LlC_kQxw,Meat Science Laboratory,1503 South Maryland Ave,Urbana,IL,40.0991849,-88.2230285,4.5,23,1,"Food, Meat Shops, Grocery, Specialty Food"
99,CPjWjKn4bj3QQFQ1nUlXUg,8F Ice Cream & Crepe,508 E Green St,Champaign,IL,40.1103078524,-88.2317322493,4.0,17,0,"Restaurants, Creperies, Food, Desserts, Ice Cream & Frozen Yogurt"
100,dKncjeWnvdqYiNC8l26fog,Jimmy John's,43 East Green St,Champaign,IL,40.109783,-88.240813,3.0,25,1,"Delis, Sandwiches, Fast Food, Pizza, Restaurants, Food Delivery Services, Food"
101,dIZcPB3CtNjMn4O_p8QFxw,Original Pancake House,"1909 W Springfield Ave, Ste B",Champaign,IL,40.11246,-88.278196,4.0,227,1,"Breakfast & Brunch, Restaurants"
102,hMgIF04rrJ7oB1lGIpFt5w,South China Restaurant,25 E Springfield Ave,Champaign,IL,40.112114,-88.241292,3.5,33,1,"Restaurants, Chinese"
103,tx_0mIXEr4TPucSYyfA2eg,Sarku Japan,619 S Wright,Champaign,IL,40.110821,-88.229156,2.5,6,0,"Fast Food, Japanese, Restaurants"
104,2YnUIGGmhoJX4Cd61nQLkg,Za's Italian Cafe,1905 N Neil St,Champaign,IL,40.1399247,-88.2458532,3.0,31,0,"Food, Italian, Restaurants"
105,aELkI0mfF1EbQo_m44vEKg,O'Charley's Restaurant & Bar,730 W Town Center Blvd,Champaign,IL,40.143257,-88.256006,2.5,63,1,"Breakfast & Brunch, American (Traditional), Burgers, Restaurants, Southern"
106,exB3ClkOkURgNJPazPtEHw,Riggs Beer Company,1901 S High Cross Rd,Urbana,IL,40.0927251,-88.1635162,4.5,28,1,"Beer Gardens, Nightlife, Breweries, Food, Hotels & Travel, Beer Tours, Tours"
107,nD4cF5IH8RE7LFGdR2FMUA,Windy City Express,410 N Race St,Urbana,IL,40.1161725,-88.2086633,3.5,33,1,"Restaurants, Burgers, Hot Dogs"
108,fsBAaw7xwHWB78HRSWwQEQ,The Spice Box,905 S Goodwin Ave,Urbana,IL,40.1049315,-88.224759,4.0,4,1,"Food, Ethnic Food, Specialty Food, Colleges & Universities, Restaurants, Imported Food, Education"
109,7m8MoWuudrxU98fEw7iBIw,Sairam Om,2502 Village Green Pl,Champaign,IL,40.081896,-88.295835,4.0,17,0,"Indian, Restaurants"
110,eCmLyXPKBxK7p_MKmBwT9Q,McDonald's,711 W Champaign,Rantoul,IL,40.3078436,-88.17262844,2.0,12,1,"Coffee & Tea, Fast Food, Food, Burgers, Restaurants"
111,Bfh_ON-LQUcJerjcDF5KNA,Best Wok,"907 W Marketview Dr, Ste 8",Champaign,IL,40.137698,-88.260784,3.0,27,1,"Chinese, Restaurants"
112,TLEO3CpoJ0R7UKHvRb8fVg,Monticello Red Wheel Restaurant,803 Iron Horse Ln,Monticello,IL,40.049686,-88.567102,3.0,17,1,"Sports Bars, Burgers, American (New), Nightlife, Bars, Restaurants, Seafood, Mexican, Vegetarian"
113,2BEJCBkNzOBXaydBJf5k0A,Sonic Drive-In,601 N Mattis Ave,Champaign,IL,40.1213630592,-88.2775497437,3.0,17,1,"Fast Food, Food, Burgers, Ice Cream & Frozen Yogurt, Restaurants"
114,uf8WNaHKKssMUbQVg8nJ7g,Jimmy John's,"102 E University Ave, Ste. A",Urbana,IL,40.1168476,-88.2070456,2.5,24,1,"Sandwiches, Restaurants, Food, Food Delivery Services, Delis, Fast Food"
115,4LZPqYJWbfwscbl6uJntDA,Annapurna Stores,"505 S Neil St, Ste 11",Champaign,IL,40.1112188295,-88.2449677439,3.5,11,1,"Food, Grocery"
116,9XMOJYI0jh6cycrZK9Js4g,Campus Burger,2000 N Neil St,Champaign,IL,40.1425481,-88.2427717,2.5,9,1,"Burgers, American (Traditional), Restaurants"
117,pnC73AlRWa1MWlIpZe3N1A,Doughbelly Subs,201 N Lombard,Mahomet,IL,40.1955803184,-88.4000484008,4.0,4,0,"Pretzels, Food, Restaurants, Specialty Food, Sandwiches"
118,pjO0ZRGpCwlaOzipZDa3HA,Sam’s Club,915 W. Marketview Dr.,Champaign,IL,40.13886,-88.26423,3.0,24,1,"Bakeries, Fashion, Shopping, Department Stores, Food, Grocery, Wholesale Stores"
119,BQbDU21SuXERM_gK9AA9AQ,Einstein Bros Bagels,901 W University Ave,Urbana,IL,40.116163,-88.2197603,3.5,31,1,"Breakfast & Brunch, Sandwiches, Restaurants"
120,Igr5Id1TWyM3JLsY_td9_w,Jimmy John's,807 S Lincoln Ave,Urbana,IL,40.1055014432,-88.2194219239,4.0,29,1,"Food, Delis, Fast Food, Sandwiches, Food Delivery Services, Restaurants, Pizza"
121,62Ibju8UmUZtPIBLDS_nUw,Tasty Fish Chicken & Grill,705 N Neil St,Champaign,IL,40.122452,-88.2440267,2.5,11,0,"American (Traditional), Restaurants, Fish & Chips"
122,lrrUyxzlvqp-niBEj6_6dg,Niro's Gyros,1007 W University Ave,Urbana,IL,40.1161419,-88.2216497,3.5,55,1,"Restaurants, Greek"
123,J5xFCQ74DrFaffZx7_seHg,Marco's Pizza,1901 S Philo Rd,Urbana,IL,40.094481,-88.1913992,3.5,7,0,"Desserts, Food, Restaurants, Salad, Pizza, Food Delivery Services"
124,EmezZdxbvjydG5FkN6Mecw,Fiesta Ranchero,1805 S Neil St,Champaign,IL,40.0940675,-88.2457853,2.0,5,0,"Restaurants, Mexican"
125,Pqt05fL95TArBD7mFCni-g,Dairy Queen Grill & Chill,701 N 3rd St,Saint Joseph,IL,40.1180128,-88.0413139,2.5,6,1,"Food, Fast Food, Restaurants, Ice Cream & Frozen Yogurt, Burgers"
126,LwFlN4-f4cPHx6-gk8HlUw,Domino's Pizza,1702 W Bradley Ave,Champaign,IL,40.127859,-88.274883,2.5,10,1,"Pizza, Restaurants, Italian, Sandwiches, Chicken Wings"
127,WTu8B3igPYJlkJ2gHzrBYw,M Sushi & Grill,"715 S Neil St, Ste A",Champaign,IL,40.1076853,-88.2436688,4.5,36,0,"Japanese, Restaurants, Asian Fusion, Sushi Bars, Seafood, Korean"
128,KKOmfySnxK96EtlgOU9Hjg,Wendy's,505 N Cunningham,Urbana,IL,40.1172246,-88.2051296,2.0,12,1,"Restaurants, Fast Food, Burgers"
129,xHjcLBgB3i9u_dHQZ8rirg,Wedge Tequila Bar & Grill,2411 Village Green Crossing,Champaign,IL,40.083446,-88.297332,3.0,12,0,"Nightlife, Spanish, Cocktail Bars, Bars, Restaurants"
130,J03fJlz-pi9x2oqxZ4vRng,Chevys Fresh Mex,103 W Marketview Dr,Champaign,IL,40.137405,-88.245935,3.0,16,0,"Bars, Nightlife, Restaurants, Mexican, Tex-Mex"
131,gWZOW4-8N5dLixQAlp8iRg,Manzellas Italian Restaurant,115 S 1st St,Champaign,IL,40.1158162,-88.2390064,3.0,35,1,"Restaurants, Italian, Event Planning & Services, Venues & Event Spaces"
132,AZuF4x7_CPZndrMcUQW7mg,Ott's Drive In,400 N Century Blvd,Rantoul,IL,40.3145097,-88.1554787,4.0,31,1,"American (Traditional), Restaurants"
133,qaS11gk1kIlrzCX1LYiZsw,Super Niro Gyro,608 West Town Center Blvd,Champaign,IL,40.1432102493,-88.2519266565,3.5,55,1,"Restaurants, Greek"
134,kLojwXxsSWHtL_AxeBie1A,Starbucks,503 E. Green Street,Champaign,IL,40.110149,-88.231693,3.5,36,1,"Coffee & Tea, Food"
135,uzpdcxvlKx5BuoWU3NRHbA,Minneci's at the Crossing,2501 Village Green Pl,Champaign,IL,40.081711927,-88.2963885071,3.0,43,0,"Bars, Wine Bars, Soup, Restaurants, Italian, Nightlife"
136,bFFKXnBoMMo1MEbLvw_FWQ,Dunkin',2006 W Springfield Ave,Champaign,IL,40.113214,-88.282,1.0,4,1,"Coffee & Tea, Food, Donuts"
137,3P1dBNauEwkToURbq_I0Dw,Old Orchard Lanes & Links,901 N Dunlap Ave,Savoy,IL,40.0652239,-88.2507519,3.5,24,1,"Party & Event Planning, Mini Golf, Bars, Arcades, Lounges, Active Life, Arts & Entertainment, Food, Nightlife, Event Planning & Services, Recreation Centers, Restaurants, Party Supplies, Bowling, Amusement Parks, Wedding Planning"
138,hX-foSZsr_fW_n7ydo4D0Q,KFC,410 University Ave,Urbana,IL,40.1167637,-88.2122392637,2.5,12,1,"Chicken Wings, Fast Food, Restaurants, Chicken Shop"
139,pBCI0MkVxoKixxIhZqRT4Q,That Burger Joint,1905 S Neil St,Champaign,IL,40.092946727,-88.2460042,3.0,11,1,"Burgers, Restaurants"
140,DjDcRTH09r1Yma6qd0om0Q,Art Mart,1705 S Prospect Ave,Champaign,IL,40.096164,-88.258095,4.5,21,1,"Shopping, Women's Clothing, Delis, Restaurants, Bakeries, Fashion, Food, Specialty Food"
141,tjflM9icU-y6xqNntOXtOQ,Far East,105 S 5th St,Champaign,IL,40.115755,-88.232332,3.5,32,1,"American (New), Food, Grocery, Specialty Food, International Grocery, Ethnic Food, Restaurants"
142,O6vI8ti-3uYE15ooEthFiw,Mr. Crab,401 South 1st St,Champaign,IL,40.1128063,-88.2391787,4.0,3,1,"Restaurants, Cajun/Creole, Seafood"
143,Cw0JNNdPja9CVyT6ugGMdw,Saigon To Bangkok,"1333 Savoy Plz, Ste 8",Savoy,IL,40.0704268,-88.251563,4.0,18,0,"Vietnamese, Restaurants, Thai, Shopping"
144,XiJG_I82LssFbGDIMsHYvQ,Rafters Draft & Dough,1906 W Bradley Ave,Champaign,IL,40.12811,-88.27974,3.5,22,0,"Restaurants, Pizza, Beer, Wine & Spirits, Beer Bar, Sandwiches, Food, Nightlife, Bars"
145,W7KtVjq4R_5F5EwbCBENQw,Golden Kitchen,402 W Center St,Monticello,IL,40.028317,-88.574491,4.5,6,1,"Chinese, Restaurants"
146,Xo_gnwOlbi0zFUM2axLe1A,Circle K,220 S Murray St,Rantoul,IL,40.3083125,-88.1747696,1.0,3,1,"Convenience Stores, Food, Gas Stations, Automotive"
147,ladygnq1uvjC60Wuw3ocWQ,Walmart,100 S High Cross Rd,Urbana,IL,40.1117357,-88.159347,1.5,4,0,"Drugstores, Mobile Phones, Discount Store, Shopping, Food, Fashion, Grocery, Department Stores"
148,OrX0D6xwxmymxfzWRatT7Q,Culver's,903 W Marketview Dr,Champaign,IL,40.137802124,-88.2596740723,3.5,28,1,"Food, Fast Food, Ice Cream & Frozen Yogurt, Restaurants, Sandwiches, Burgers"
149,bqiBdnyfYxTc4r8hY28q1g,Mi Veracruz Mexican Grill,208 N Parke St,Tuscola,IL,39.8002946,-88.2895915,4.0,43,1,"Mexican, Restaurants"
150,QdganL5AW9E_fNoRVroLig,Golden Wok,405 E University Ave,Champaign,IL,40.1160086,-88.2328539,4.0,120,1,"Thai, Chinese, Restaurants"
151,5ie-dY4FWa_w7MkU01YvzQ,Cafeteria & Company,208 W Main St,Urbana,IL,40.112655,-88.2093142,3.5,18,1,"Coffee & Tea, Food, Restaurants, Salad, Cafes, Beer, Wine & Spirits, Sandwiches"
152,6GJ9K4HadzMBZG4WY_P9bw,Smoke 'Que & Brew,2411 Village Green Pl,Champaign,IL,40.083446,-88.297332,3.5,22,0,"Restaurants, Food, Barbeque"
153,wRJQdkMCbvIj269WjXtuyQ,White Horse Inn,510 E John St,Champaign,IL,40.1093708,-88.2308592,3.0,11,0,"Pubs, Bars, American (Traditional), Restaurants, Nightlife"
154,FeXsYKhyJ7F8t0-kn5JldQ,Schnucks Urbana,200 N Vine,Urbana,IL,40.1139865,-88.2029151,3.5,22,1,"Flowers & Gifts, Florists, Nurseries & Gardening, Bakeries, Shopping, Food, Home & Garden, Floral Designers, Drugstores, Event Planning & Services, Restaurants, Grocery"
155,EsDG5Yit6y5OvK4ocBfmyw,El Progreso,501 N Cunningham Ave,Urbana,IL,40.1167917,-88.2052446,4.0,6,1,"Grocery, Food"
156,f3X4w3u5HHLdmahEC0ElrQ,Roch's Place,101 N Main St,Saint Joseph,IL,40.1115531921,-88.0419235229,3.0,10,1,"Bars, Burgers, Sports Bars, Nightlife, Restaurants"
157,D-B5LsTHJgrhsHVex4gyHA,Layalina Mediterranean Grill,401 S 1st St,Champaign,IL,40.112801,-88.239078,3.0,45,0,"Middle Eastern, Restaurants, Mediterranean"
158,2wNI-81CncuC21xr92anTA,Urbana Garden Family Restaurant,810 W Killarney St,Urbana,IL,40.1329664,-88.2188183,3.5,62,1,"American (Traditional), Sandwiches, Diners, Breakfast & Brunch, Restaurants"
159,C_Zj7H7bUJ5kGCwFmEwW6w,B Won,2006 S Neil St,Champaign,IL,40.0920944,-88.2452981,3.5,96,1,"Korean, Restaurants"
160,rwuMWGqt7L5l5lDsOYv1dw,Zyggyz,"410 E Green St, Ste 3",Champaign,IL,40.110554,-88.232373,3.5,29,0,"Restaurants, Indian"
161,-5NXoZeGBdx3Bdk70tuyCw,Po' Boys Restaurant,"202 E University Ave, Ste C",Urbana,IL,40.11771,-88.2059038,4.0,71,1,"Pizza, Barbeque, Restaurants"
162,AtcNNpbD5MeJj6J4MXpz5w,3 Ravens Food & Spirits,108 S Charter Rd,Monticello,IL,40.0251139,-88.5729515,3.5,42,1,"Bars, Nightlife, American (New), Restaurants"
163,Tiu3iRXMlzEEI6Epp3I8lg,Cafe Sababa,503 E John St,Champaign,IL,40.1087243,-88.2315754,5.0,5,1,"Kosher, Vegetarian, Restaurants, Pizza"
164,yiFcujhdkeDhmXRufMG-lw,Masijta Grill,"202 N Race, Ste A",Urbana,IL,40.1137608,-88.2088348,4.0,124,1,"Restaurants, Korean"
165,rnQLIVk3U7HI7kHRMxC16A,Krispy Krunchy Chicken,922 W Bradley Ave,Champaign,IL,40.127586,-88.260263,3.0,4,0,"Restaurants, Food, Chicken Wings"
166,iwbUch3he8o-_qM8f2cyTQ,Salt and Light Ministries,1819 S Philo Rd,Urbana,IL,40.0955013,-88.1907466,4.0,5,1,"Shopping, Local Services, Community Service/Non-Profit, Food, Grocery, Thrift Stores"
167,yh-JA5fV2QkGaBUjfvioIQ,Fannie May Fine Chocolates,402 S Neil,Champaign,IL,40.1122829,-88.2431074,4.0,7,1,"Chocolatiers & Shops, Candy Stores, Specialty Food, Food"
168,gaR5jDvZsOC0RQeY-W1eqQ,Mas Amigos,40 E Springfield Ave,Champaign,IL,40.1127011,-88.2407279,4.0,63,0,"Restaurants, Mexican"
169,AQ76VSVrSPajc2qFZDmzeg,Panda Express,106 E University Ave,Urbana,IL,40.1168417,-88.206665,3.0,7,1,"Chinese, Restaurants, Fast Food"
170,HvRWUE3yP3mY4mZiG6UtJg,Einstein Bros Bagels,803 W Anthony Dr,Champaign,IL,40.1365794371,-88.2573496356,4.0,21,1,"American (New), Restaurants, Bagels, Breakfast & Brunch, Food"
171,5TPyzmhr3TKyWkPfzm01wA,Fazoli's,2029 N Prospect Ave,Champaign,IL,40.139841,-88.258482,3.0,32,1,"Restaurants, Italian"
172,U_Hxyrx7yGDliv_TPa6i_A,McDonald's,1006 Purnell Dr,Mahomet,IL,40.1854262,-88.3682081,2.0,14,1,"Coffee & Tea, Fast Food, Restaurants, Food, Burgers"
173,LzK_0z9OoG1NBaTq16MrUA,Little Caesars Pizza,1901 S Philo Rd,Urbana,IL,40.0944108,-88.1913764,3.5,3,0,"Restaurants, Pizza"
174,dMP29gTLicNLWhATxP2Dxg,Subway Restaurants,1101 N. Mattis Dr.,Champaign,IL,40.1268744,-88.2776325,2.5,3,1,"Restaurants, Sandwiches, Fast Food"
175,gnqHyA6gY2-m9S-FKt6Xqw,Cravings,603 S Wright St,Champaign,IL,40.1112203703,-88.2290604075,4.0,172,1,"Pan Asian, Asian Fusion, Malaysian, Restaurants, Chinese"
176,t0f8qXrKGNWv6j8MGmosRg,Caffebene,700 S Gregory St,Urbana,IL,40.106139,-88.221243,3.0,60,1,"Desserts, Restaurants, Cafes, Coffee & Tea, Gelato, Food"
177,NXERVbjRdwe0Deg4d_fVlA,Koto Ramen,508 E Green Street,Champaign,IL,40.110827,-88.231612,2.0,30,0,"Sushi Bars, Asian Fusion, Steakhouses, Restaurants, Ramen, Japanese"
178,DkwuiCqvSrqE8fUA4qJPBw,Everyday Kitchen Restaurant & Bar,1807 S Neil St,Champaign,IL,40.0940663339,-88.2473804365,4.5,42,1,"American (Traditional), Bars, Cocktail Bars, Restaurants, Nightlife"
179,myyJxx7nvs-5_T-Uvc-kLw,Wendy's,1401 W. Green Street,Urbana,IL,40.1107993405,-88.2302236969,1.5,7,1,"Burgers, Fast Food, Restaurants"
180,S7TY9oCMqK-TffWrygetcw,Panera Bread,1765 W Kirby Ave,Champaign,IL,40.097838,-88.275366,2.5,43,1,"Sandwiches, Salad, Bagels, Breakfast & Brunch, Soup, Restaurants, Food, Bakeries"
181,U6xqyLII8WqNRbhEx3FXHQ,Attie's Bar & Grill,2600 S Stone Creek Blvd,Urbana,IL,40.0879260365,-88.1697953554,3.0,18,1,"Restaurants, American (Traditional), Nightlife, Bars"
182,1tzuSAcAFy-E7UbEhPjBjg,Wood N’ Hog Barbeque,101 W University Ave,Urbana,IL,40.1163258843,-88.2079866667,3.0,7,1,"Barbeque, Restaurants"
183,5jak2hYO5ikUzjm-Ytao5A,Starbucks,102 N Vine Street,Urbana,IL,40.112939,-88.2046272,2.5,35,1,"Food, Coffee & Tea"
184,CrIWqmuO2uQWwl3z11K_BA,Pizzeria Antica,10 E Chester St,Champaign,IL,40.1168569,-88.2430189,4.0,142,1,"Restaurants, Italian, Pizza, Salad"
185,9pQsVUScSzreqYLU7p5oaQ,Hardee's,309 N Market St,Monticello,IL,40.0272793,-88.5731024,2.5,11,1,"Restaurants, American (New), Fast Food"
186,Icj9QzQxqvzOmPm_liAq1Q,Hilton Garden Inn Champaign/ Urbana,1501 S Neil St,Champaign,IL,40.0991335398,-88.246218,4.0,41,1,"Hotels & Travel, Caterers, Recreation Centers, Hotels, Party & Event Planning, Event Planning & Services, American (New), Active Life, Restaurants, Venues & Event Spaces"
187,WdizS0qg_-oUD9_FeiWgAw,Fernando’s,618 E Daniel St,Champaign,IL,40.1080473059,-88.22955189,5.0,3,1,"Restaurants, Mexican, Latin American"
188,GWS5s8HSm1zjqMLJD7wQLg,Woori Jib Restaurant,710 S 6th St,Champaign,IL,40.1095293,-88.2302634,3.5,94,0,"Restaurants, Korean"
189,5dCJy5oH6ZHqB_7cx76DhA,Pizza Hut,409 N Mattis Ave,Champaign,IL,40.1202096,-88.277289,2.0,19,1,"Italian, Chicken Wings, Pizza, Restaurants"
190,XehDV9ZrKDGGcdaZ7rs-aQ,Lox Stock & Bagel,PO Box 1550,Champaign,IL,40.1211828,-88.2434596,3.5,3,0,"Bagels, Food, Restaurants"
191,SViPlfsmwqvWNxZuVOgOMQ,Subway Restaurants,"616 East Green Street, Suite A",Champaign,IL,40.1105931,-88.2296109,2.0,10,1,"Restaurants, Sandwiches, Fast Food"
192,J5U-nbhKSnnX7DJGT6QELg,The Apple Dumplin',2014 High Cross Rd,Urbana,IL,40.1336703544,-88.1625332782,4.0,48,1,"Restaurants, American (Traditional)"
193,0mhOoKxdWMPg4PvozmSMbg,Piccadilly Beverage Shops,505 S Neil St,Champaign,IL,40.1111456,-88.2441689,4.0,6,0,"Food, Beer, Wine & Spirits"
194,Xoahafjr-Hz9zLrodYvDBA,Burger King,720 West Champaign Ave,Rantoul,IL,40.3086346,-88.1734807,2.0,19,1,"Burgers, Restaurants, Fast Food, Hot Dogs"
195,kj44upIDaMIPlYvsuweP4g,Geovanti's,401 E Green St,Champaign,IL,40.1100246,-88.2332899,3.0,38,0,"Italian, Nightlife, Dive Bars, Bars, Restaurants, Lounges"
196,rQX6RVr6E4Zg9hx8GBFGHQ,TGI Friday's,"100 Trade Centre Dr, Ste 1",Champaign,IL,40.097136,-88.245695,3.0,14,0,"American (Traditional), Restaurants"
197,0QgFIP9W0eGZSxCSQRQSCg,Subway Restaurants,"701 S Gregory Street, Suite A",Urbana,IL,40.1067106,-88.2217516,2.5,6,1,"Restaurants, Sandwiches, Fast Food"
198,gOaveyoq1_-xeDEm4ea49g,Burger King,1106 West University Ave,Urbana,IL,40.1166154,-88.2231811,2.5,3,1,"Restaurants, Fast Food, Burgers"
199,NsHKS_H2EMBYT-7KLWqjxA,Voice KTV,24 E Green St,Champaign,IL,40.110524,-88.241673,3.0,9,0,"Nightlife, Karaoke, Bubble Tea, Food"
200,wCoAzScVWpL9bsDsyf1EIQ,McDonald's,601 N Cunningham,Urbana,IL,40.1182515363,-88.2044307038,2.0,10,1,"Restaurants, Fast Food, Food, Burgers, Coffee & Tea"
201,kUICYu0N_TbtCz0Z8ynPFw,Chipotle Mexican Grill,"528 E Green St, Ste 101",Champaign,IL,40.1104240262,-88.2306421466,3.0,83,1,"Restaurants, Mexican, Fast Food"
202,d-l0D4N236Qc0-Iy-p1cFw,Cracker Barrel Old Country Store,2101 N Kenyon Rd,Urbana,IL,40.1334488,-88.1995086,3.5,34,1,"American (Traditional), Caterers, Event Planning & Services, Restaurants, Comfort Food, Southern, Breakfast & Brunch, Salad, Desserts, Food"
203,RDr-19q3FSDLezc_kJK88w,Subway Restaurants,"2740 South Philo Road, Suite A",Urbana,IL,40.0830783812,-88.1892026096,3.0,3,1,"Restaurants, Sandwiches, Fast Food"
204,1c4IxxSQxuh2mHVm6o2b9g,Tks Cheesesteak,112 E Congress Ave,Rantoul,IL,40.3093759,-88.1583124,4.5,7,1,"Restaurants, Cheesesteaks, Food Trucks, Burgers, Chicken Wings, Food"
205,gEPH0lm8IJcC8dkkwHJ7fA,Jillian's,1201 S Neil St,Champaign,IL,40.103246,-88.244236,3.5,5,0,"American (Traditional), Bars, Pool Halls, Nightlife, Restaurants"
206,RTiw2W5hTvzAmI0iaWvb0A,Family Table,,Rantoul,IL,40.3092932,-88.1448833,3.0,9,0,"American (Traditional), Restaurants"
207,pMiz7SP82Tknv1NbVqoSfg,Black Dog Smoke & Ale House,320 N Chestnut St,Champaign,IL,40.117978,-88.240271,4.0,351,1,"Nightlife, Bars, Restaurants, Barbeque"
208,zQNJwaWR1M1zDjLNVJiNEw,Pizza M,208 W Main St,Urbana,IL,40.112655,-88.2093142,3.5,63,0,"Pizza, Restaurants"
209,4SGa5HFu7Q4rrsAAWJa-ew,Popeyes Louisiana Kitchen,910 W Bloomington Rd,Champaign,IL,40.133574,-88.260071,2.5,42,1,"Fast Food, Chicken Wings, Restaurants, Cajun/Creole, American (Traditional), Southern"
210,zPo1VeP0VzXPujJYUU_oFQ,Monarch Brewing,212 South Independence St,Monticello,IL,40.024442,-88.571378,3.5,36,1,"Pubs, Restaurants, American (Traditional), Food, Brewpubs, Bars, Nightlife, Breweries, Venues & Event Spaces, Event Planning & Services"
211,-2q4dnUw0gGJniGW2aPamQ,Fiesta Ranchera,1805 S Neil St,Champaign,IL,40.0940675,-88.2457853,2.0,4,0,"Mexican, Restaurants"
212,4wzfwVrijdT--mWTESjw9g,China King,205 W Warren St,Saint Joseph,IL,40.1129997,-88.0422169,4.0,13,1,"Chinese, Restaurants"
213,HT1Y9Q1nkSqve-xxgfEQwQ,Arby's,760 W Champaign Ave,Rantoul,IL,40.3087668,-88.1742806,3.5,6,1,"Sandwiches, Restaurants, Fast Food"
214,6vVkSaymw-4MOTPh68HN3Q,Number One Wok,12 E Green St,Champaign,IL,40.1101982,-88.2430455,3.5,15,0,"Seafood, Chinese, Restaurants"
215,hjo4IYguwprIJ16A8lV75A,Domino's Pizza,201 N Lombard St,Mahomet,IL,40.1958657,-88.3998042,4.0,4,1,"Sandwiches, Restaurants, Pizza, Chicken Wings"
216,nplkC6vnh4qT9xH-vhup6w,The New Sweet Indulgence,1121 Windsor Rd,Champaign,IL,40.0831795,-88.2646946,3.0,39,1,"Restaurants, Bakeries, Food"
217,UUsS7SrTQQ2AvvpslfrvFA,Legends,522 E Green St,Champaign,IL,40.1104968,-88.2311706,3.5,91,1,"Nightlife, Sandwiches, Bars, Restaurants"
218,VSkNNLEGTwVCjXTqQ4rCrg,Freddy's Frozen Custard & Steakburgers,420 W Towncenter Blvd,Champaign,IL,40.142298,-88.249537,3.0,30,1,"Burgers, Desserts, Food, Restaurants, Fast Food, Ice Cream & Frozen Yogurt"
219,2e5Q-0Pr23NFEhgpYG8cFw,Crepe De Licious,1401 W Green St,Urbana,IL,40.1097387,-88.2273147,2.0,9,0,"Breakfast & Brunch, Burgers, Food, Hot Dogs, Creperies, Restaurants, Desserts"
220,sjpsGKPABZDnABCv3wYtUQ,Rosati's Pizza,"701 S Gregory St, Unit H",Urbana,IL,40.1067106,-88.2217516,3.0,69,1,"Caterers, Event Planning & Services, Restaurants, Pizza"
221,-5dd-RjojGVK9hjAMCXVZw,La Fiesta Mexican Restaurant,1717 Philo Rd,Urbana,IL,40.096510146,-88.1920049885,3.5,12,0,"Mexican, Restaurants"
222,EcgJ_PI0DBPP1UyLCF1zxQ,Dom's Patio Villa,301 S Locust St,Champaign,IL,40.114144,-88.239757,4.5,3,0,"Restaurants, Italian"
223,3C_S1j70o3nYJUTvnVo7dQ,Arby's,509 N Cunningham Ave,Urbana,IL,40.1177712,-88.2046857,3.5,8,1,"American (New), Sandwiches, Fast Food, Restaurants"
224,bVt5eOVdpZzg83qlW9Rl2g,Monical's Pizza,103 W Kirby Ave,Champaign,IL,40.097774,-88.24573,3.5,24,0,"Restaurants, Pizza, Italian"
225,7B8ggLA_MiDx7HytuWvkZQ,Smallcakes Cupcakery and Creamery,2005 S Neil St,Champaign,IL,40.0920996,-88.246223,4.0,22,1,"Cupcakes, Food, Custom Cakes, Bakeries"
226,L4WXLHf2p_qoLgiPwzTSgA,Hardee's,326 S Century Blvd,Rantoul,IL,40.3069831,-88.1562179,1.5,11,0,"American (Traditional), Restaurants, Fast Food"
227,GkQxwsRXYioD2VtCjNfedw,The Beef Stand,611 E Green St,Champaign,IL,40.110039,-88.229804,4.0,24,0,"Hot Dogs, Delis, Restaurants, Sandwiches"
228,E4t43bnsfeOY2bv_8IPmSw,Prime Time Pizza,505 E University Ave,Champaign,IL,40.116061,-88.231376,2.5,13,0,"Restaurants, Pizza"
229,eg7-WKbzT-Uyc8fYPZ9RYw,The Office II,302 S Country Fair Dr,Champaign,IL,40.113548,-88.282547,2.0,4,1,"American (Traditional), Restaurants, Pubs, Nightlife, Bars"
230,wsuzuLD3KV7L8oMinLCI0A,Merry Ann's Diner,1510 S Neil St,Champaign,IL,40.0984525132,-88.2442462116,3.0,84,1,"Diners, American (Traditional), Breakfast & Brunch, Restaurants"
231,RWd83o4drIOE60W1meaESA,Mirabelle Fine Pastries,124 W Main St,Urbana,IL,40.1124479,-88.2084132,4.0,100,0,"Desserts, Bakeries, Food, Restaurants"
232,N5PfEojrY4rFqpqzno4aZg,Bevande Coffee,201 N Goodwin Ave,Urbana,IL,40.1138245,-88.2240759,2.0,9,0,"Food, Coffee & Tea"
233,beBdNA6cEuDLvrhTi_EjKQ,McDonald's,501 N Mattis,Champaign,IL,40.1205718,-88.2774235,1.5,15,1,"Coffee & Tea, Restaurants, Fast Food, Food, Burgers"
234,vqEtZ7CtNB9G8WMzjwJA2g,Wedge Tequila Bar & Grill,415 N Neil St,Champaign,IL,40.119807,-88.2438559,3.5,122,0,"Mexican, Bars, Restaurants, Nightlife"
235,Ell98LV4Yuc0DqZwGE8gWQ,Monical's Pizza,2720 Philo Rd,Urbana,IL,40.082733308,-88.189992787,3.0,32,1,"Italian, Pizza, Restaurants"
236,k441Clzdv9Ia4QZanEne3g,Wood N' Hog Barbecue,904 N 4th St,Champaign,IL,40.12454,-88.233577,4.5,57,1,"Chicken Wings, Restaurants, Barbeque, Event Planning & Services, Caterers"
237,UPCTlq-r-yZcWFFH2qOlWg,Ginger Asian Bistro,1902 Center Dr,Champaign,IL,40.139173,-88.244581,4.0,8,0,"Restaurants, Japanese, Asian Fusion"
238,m3qsb7Xf9Pivg9GAvx-gog,Kamakura Japanese Restaurant,715 S Neil St,Champaign,IL,40.107869,-88.2435628,3.0,56,0,"Japanese, Restaurants"
239,Y0_KRVDTasHCTh_P-WRSqg,Burger King,2105 West Springfield Ave,Champaign,IL,40.112532,-88.2815084,2.0,9,1,"Burgers, Restaurants, Hot Dogs, Fast Food"
240,D1vTUM0rBlcU39A9emQW8Q,Bab Plus Korean Restaurant,700 S Gregory St,Urbana,IL,40.1065086,-88.2212475,3.5,36,1,"Korean, Restaurants"
241,1p6qHrapvuKpbZGLT9qskw,El Patio,2506 Village Green Pl,Champaign,IL,40.0818267,-88.296002,3.5,43,1,"Mexican, Restaurants, Caterers, Event Planning & Services, Steakhouses, Salad"
242,SFh9uHtGR1lVPH2RTS2SWQ,McDonalds,616 E Green St,Champaign,IL,40.1104207856,-88.2297450105,3.0,19,0,"American (Traditional), Restaurants, Burgers, Fast Food"
243,X57f6FWZiwI1wOidPPhOrQ,Dos Reales,1407 N Prospect Ave,Champaign,IL,40.129902,-88.258313,4.0,219,1,"Mexican, Restaurants"
244,CpNMXASiwtJv5eCDf0n63g,Alexander's Steakhouse,202 W Anthony Dr,Champaign,IL,40.136796,-88.245076,3.0,81,1,"Steakhouses, Seafood, Restaurants"
245,zUayeEQ3_1fM_71X_1PdGQ,Let's Take a Seat: Thai Cuisine,2506 Village Green Pl,Champaign,IL,40.0818267,-88.2963454,3.5,32,0,"Restaurants, Thai"
246,6mYtRm6smtgt29hLxt1vDA,Haymakers,202 Devonshire Dr,Champaign,IL,40.090027,-88.247316,4.5,13,1,"Food, Gas Stations, Automotive, Convenience Stores"
247,i1YpfdZTpLj8TrKm9HlCig,Carmella's Creme,1611 W Springfield Ave,Champaign,IL,40.1126019,-88.2740859,3.5,48,1,"Restaurants, Food, Donuts"
248,Pz2mK5ZkmiWiHZG0OUcKdw,Rick's Bakery,124 W Main St,Urbana,IL,40.112656,-88.208447,4.5,59,1,"Bakeries, Food"
249,Qc5zSg9lnsT4G37hxr53tQ,Hank's Table,122 N Neil St,Champaign,IL,40.117237,-88.2431919,3.0,9,1,"Restaurants, Cocktail Bars, Chicken Shop, Fast Food, Burgers, Bars, Nightlife"
250,lG9YdIb-87LK21XnMKvzFg,TEAMOJI,617 E Green St,Champaign,IL,40.1101907,-88.229701,4.0,31,1,"Coffee & Tea, Bubble Tea, Restaurants, Asian Fusion, Food, Bakeries"
251,JPEYaTqH6NMYIshECydAyw,Lee's Oriental Foods,303 Cedar St,Champaign,IL,40.098746,-88.247057,3.5,3,0,"Food, Grocery"
252,3B74iILT_W1ptfQeW7pIYQ,Buffalo Wild Wings,907 W Marketview Dr,Champaign,IL,40.137833,-88.261075,2.0,42,1,"Bars, Chicken Wings, American (Traditional), Nightlife, Restaurants, Sports Bars"
253,8ed4YmEWPr5nfau82-OtCA,Subway Restaurants,"706 W Marketview Dr, Ste C",Champaign,IL,40.1378972,-88.2553386,2.5,7,1,"Sandwiches, Restaurants, Fast Food"
254,1qQ5VkxiBUjbGGdpBN-PUQ,Spicy Tang,607 S 6th St,Champaign,IL,40.1107483422,-88.2305816,2.5,36,1,"Asian Fusion, Chinese, Restaurants"
255,9BxyFs3bVmpH63JMs8P_HQ,Toro Loco,1601 N Cunningham Ave,Urbana,IL,40.1280566,-88.1999274,3.5,28,1,"Mexican, Restaurants"
256,dE_5fWVjBA0W4H7q2iwijQ,Star Karaoke,1503 Lyndhurst Aly,Savoy,IL,40.0733249833,-88.2508354715,3.0,44,1,"Korean, Restaurants, Nightlife, Karaoke"
257,a39B-BfbCipNkNH7vwCfug,Mid-Summer Lounge,623 E Green St,Champaign,IL,40.1101577,-88.2294649,4.0,72,1,"Chinese, Restaurants, Bars, Noodles, Lounges, Nightlife, Asian Fusion"
258,kKCwp86xU9XKRnAALQDhrw,The Red Herring Vegetarian Restaurant,1209 W Oregon St,Urbana,IL,40.1067731,-88.2251981,4.5,65,1,"Vegan, Cafes, Vegetarian, Restaurants"
259,CmCqXvO1weWgwaZMjMa55w,Pandamonium Doughnuts Food Truck,,Champaign,IL,40.1017582,-88.2753144,4.0,33,1,"Bakeries, Donuts, Food Trucks, Food, Coffee & Tea"
260,EybiuKEnH-AHYG34qG8gFw,Corkscrew Wine Emporium,203 N Vine St,Urbana,IL,40.1138007,-88.2053424,4.0,4,0,"Food, Beer, Wine & Spirits"
261,giiWXI4DcXIdvoGmeIOeEQ,Top Food,103 W Kirby Ave,Champaign,IL,40.0977343,-88.245719,3.0,5,1,"Seafood, Barbeque, Restaurants, Chinese"
262,LyGab6ITDEMDI5E0YcC0Ng,The Himalayan Chimney,134 W Church St,Champaign,IL,40.1185005,-88.2449807,4.0,115,1,"Bars, Nightlife, Restaurants, Indian"
263,-S1BkxguVmi2G_O6Bcoabg,Steak ’n Shake,1709 S Neil St,Champaign,IL,40.0949553,-88.2458521,2.5,51,1,"Burgers, American (New), Restaurants, Juice Bars & Smoothies, Diners, Food, Breakfast & Brunch, Fast Food, American (Traditional)"
264,t952QLgrh-5l1woJ4IFgUA,Vinny's By The Slice & More,50 E Green St,Champaign,IL,40.1105507,-88.2399953,3.5,70,1,"Restaurants, Pizza"
265,0FrYsoVHheQGoXEQsH2d2Q,Aroma Cafe,118 N Neil St,Champaign,IL,40.117061,-88.2432312,4.5,149,1,"Cafes, Coffee & Tea, Restaurants, Food"
266,OBRf8DQVw61CDrZvwXLGlQ,Holiday Inn Hotel Champaign/Urbana,1001 W Killarney St,Urbana,IL,40.131581,-88.221811,2.5,16,0,"Venues & Event Spaces, Party & Event Planning, Restaurants, Hotels & Travel, Resorts, Event Planning & Services, Hotels"
267,QDA9xZaX4n0H7dbkTRyCYw,Subway Restaurants,"45 E University, Suite 101",Champaign,IL,40.1157434,-88.2412052,2.0,6,1,"Sandwiches, Restaurants, Fast Food"
268,z3hD4GX5gSJtuqNhN-o2cg,I Wok,113 Calvin St,Savoy,IL,40.0590115158,-88.2522375155,4.0,41,1,"Restaurants, Chinese"
269,bYCYezhqkhMOTjXHEzDZAw,Cafe Zojo,"2740 S Philo Rd, Ste D",Urbana,IL,40.082489,-88.188965,4.5,17,0,"Coffee & Tea, Food, Restaurants, Bakeries"
270,JbWQtVLQDEOBlvbVWk2OFg,Chipotle Mexican Grill,"903 W Anthony Dr, Ste A",Champaign,IL,40.137493,-88.258641,3.0,51,1,"Fast Food, Restaurants, Mexican"
271,0xjqQ2h5SzWe8zsHr6BG5w,Subway Restaurants,610 E Daniel St,Champaign,IL,40.1081659,-88.2297751,2.0,4,0,"Sandwiches, Restaurants"
272,lWmDrnqgU6w3gFaJyn_1Uw,Radio Maria,119 N Walnut St,Champaign,IL,40.1171306,-88.2426005,3.5,329,0,"Caribbean, Breakfast & Brunch, Mexican, Spanish, Basque, Restaurants, Cajun/Creole"
273,dYfB6KjDrtmN9wbtWg5qEQ,Belicious Bakery,1210 W Park,Champaign,IL,40.1175665,-88.2659641,4.5,5,1,"Food, Bakeries"
274,bYscwOmCux0HRXF9nJ4qBQ,The Wheelhouse,109 N Main St,St Joseph,IL,40.111951,-88.0423837,4.5,53,1,"American (New), Bars, Restaurants, Nightlife, Breakfast & Brunch, Cocktail Bars"
275,e9shtyZ7-9GYcbPIVV--XQ,Escobar's Restaurant,6 E Columbia Ave,Champaign,IL,40.1212439,-88.2428344,4.0,147,0,"Mexican, Latin American, Restaurants, American (New)"
276,EBai30hil5U6WzOQYwPIXA,Sammie's Pancake House,2821 W Kirby Ave,Champaign,IL,40.09843,-88.2932282,2.5,3,0,"Restaurants, Breakfast & Brunch"
277,tZT_0yAeFxuihVnGXoCbWQ,The Blind Pig Company,120 N Walnut St,Champaign,IL,40.11698563,-88.242283532,4.0,188,1,"Bars, Pubs, Nightlife, Beer, Wine & Spirits, Food"
278,PGUuVJEzM0H-ZMB6m1D6Ig,Boltini Lounge,211 N Neil St,Champaign,IL,40.117733,-88.243876,4.0,74,0,"Lounges, Wine Bars, Gastropubs, Restaurants, Food, Nightlife, Beer, Wine & Spirits, Bars"
279,xD6Q0UFxO8uE4bdaBDIMlA,Hot Pot Lab,"112 E Green St, Ste A",Champaign,IL,40.110518,-88.237281,3.5,34,0,"Hot Pot, Restaurants, Asian Fusion"
280,M8G8S2takaE_NOVutGzEkg,Alto Vineyards,4210 N Duncan Rd,Champaign,IL,40.1672104,-88.2951619,4.0,18,1,"Venues & Event Spaces, Event Planning & Services, Arts & Entertainment, Jazz & Blues, Wineries, Nightlife, Food, Beer, Wine & Spirits"
281,4i1AM_8rL1M2nd9xTpE1kg,The Morning Cup & More,202 N Race St,Urbana,IL,40.1135571,-88.2089404,4.0,7,0,"Food, Coffee & Tea"
282,9V4AGrJphOIw2RC1UoPPRw,Caribbean Grill Restaurant,2135 S Neil St,Champaign,IL,40.087699,-88.247455,4.5,98,1,"Vegetarian, Vegan, Restaurants, Caribbean, Comfort Food, Desserts, Barbeque, Food"
283,w73NcxMQmDsqVKu3zVSJtg,Illini Inn,901 S 4th St,Champaign,IL,40.107661,-88.2337389,3.5,18,1,"Nightlife, Bars, Dive Bars, Pubs, Pizza, Restaurants"
284,L57D-jGExAu6HwjByT8BOQ,Uncle Jack's Family Restaurant,2501 Village Green Pl,Champaign,IL,40.082367,-88.296204,3.5,9,0,"Restaurants, Breakfast & Brunch, American (New)"
285,3BkMnrNVkG_szOP0wQlX5A,C-U LaLa Noodle,"410 E Green St, Ste 13",Champaign,IL,40.1106376,-88.2324833,1.5,4,1,"Chinese, Noodles, Restaurants"
286,AtLv64FV-Pw6JuT3XUKU1g,Gumby's Pizza,1409 S Neil St,Champaign,IL,40.0995845,-88.2443792,3.5,40,0,"Food, Pizza, Restaurants"
287,aqTdhZDTSjA42_Uh2E6V7A,Taco Loco,523 W Town Center Blvd,Champaign,IL,40.1421947,-88.2516073,3.5,29,0,"Mexican, Restaurants, Food, Ethnic Food, Specialty Food"
288,hUkFlWp3YR_7OZ9MT9BbGQ,Buzzard's Place,111 1/2 S 3rd St,Fisher,IL,40.3170136,-88.3499029,4.0,6,0,"Desserts, Restaurants, American (Traditional), Food, Bars, Nightlife"
289,nJktGdlCdrH66UtlADlWJg,Amano's Pizza,2018 Philo Rd,Urbana,IL,40.0930433,-88.1906702,4.0,22,0,"Restaurants, Pizza"
290,-7PuYohz9dR80iGfVR_kLA,BIGGBY COFFEE,401 S Mattis Ave,Champaign,IL,40.1123750709,-88.2772195188,4.0,17,0,"Coffee & Tea, Bakeries, Cafes, Restaurants, Bagels, Food"
291,DS3-yphtWDHAdXLtIoqdAA,The Pita Pit,611 E Green St,Champaign,IL,40.110039,-88.229804,3.5,3,0,"Sandwiches, Restaurants"
292,1EzEu4-4wM7HsAuR8D_uJw,Jumbo Crab,2028 N Prospect Ave,Champaign,IL,40.1410352,-88.2551491,4.0,5,1,"Seafood, Restaurants"
293,ky0cUgRt1Bye3cxgxXpgYA,Fire Station Pizza and Pub,510 E John St,Champaign,IL,40.109335,-88.23084,1.5,14,0,"Pubs, Restaurants, Pizza, Nightlife, Bars"
294,YJ8Ehqq4Jr2_xmtRe5aXLQ,Mirsung,49 E Green St,Champaign,IL,40.1097873,-88.2404819,3.5,12,1,"Grocery, Indian, Food, Restaurants"
295,Pj8n8jDPRdXi7RdOABJkWA,Amano's Pizza,1407 S Neil St,Champaign,IL,40.0995658,-88.2443819,4.5,11,0,"Food, Restaurants, Specialty Food, Pizza"
296,NPpttQPnIbzezRMURx973g,Signature Grill,505 E Green St,Champaign,IL,40.1099808,-88.2314369,4.5,35,1,"Asian Fusion, Restaurants, Mediterranean, Indian, Mexican"
297,HbK6IfznbVToEaKVC0WcSg,The Clark Bar,207 W Clark St,Champaign,IL,40.1150169,-88.2461558,3.5,27,1,"Nightlife, Karaoke, Tapas Bars, Restaurants, American (Traditional)"
298,E6QAh8UPRo6Tlg6hkcWCHw,Bombay Indian Grill,401 E Green St,Champaign,IL,40.110474,-88.233544,3.5,98,1,"Pakistani, Indian, Restaurants"
299,fY0Dpw5a3i1CMjMuT2SaDQ,Holy Land Mediterranean Grill,705 N Neil St,Champaign,IL,40.1221403,-88.243543,3.5,27,0,"Mediterranean, Middle Eastern, Restaurants, Turkish"
300,SmHuGnqBCjGg5e8QAkBTtA,V. Picasso,214 W Main,Urbana,IL,40.112708,-88.209562,3.0,41,0,"Restaurants, Tapas Bars"
301,08xwfgONKGqke1wwuby3wg,Ruler Foods,716 W Town Center Blvd,Champaign,IL,40.1445079211,-88.2553111364,4.0,10,1,"Food, Grocery"
302,0TR2ph7wzJfSw6pd6FyTXQ,Lucky Moon Pies and More,401 E Oak St,Mahomet,IL,40.1917809,-88.4040422,4.0,4,1,"Food, Desserts, Cupcakes, Bakeries"
303,gsoSAb9t7Ar7Ww6O_3GuOg,Los Toros Numero 2,1204 Bear Ln,Monticello,IL,40.0093278,-88.5763857,3.5,6,0,"Restaurants, Mexican"
304,THC1S01liu8wIeg2ienLiw,Howbowda Bagel,"611 E Green St, Campustown",Champaign,IL,40.1164204,-88.2433829,3.0,10,0,"Bagels, Food"
305,daNKquKlJrBZ8CIG9jxnVA,The Azteca,703 Eastwood Dr,Mahomet,IL,40.195742,-88.397754,3.5,3,0,"Restaurants, Mexican"
306,MNo2l4eFOOJqCo8PX0W12A,China Star Restaurant,400 W Center St,Monticello,IL,40.0279187,-88.5744749,3.0,4,0,"Chinese, Restaurants"
307,GvLIWb02xHBohoAdDvqxDw,Ruler Foods,2002 W Springfield Ave,Champaign,IL,40.1135723363,-88.2803142931,3.5,5,1,"Food, Grocery"
308,ECKXHrl2GqNKRMG9jp4trg,Good Fella Korean Bistro,905 S Neil St,Champaign,IL,40.1052106,-88.2439082,4.0,50,1,"Restaurants, Korean"
309,g_oOjzFgqmSEAD4crxBirA,Jimmy John's,1511 North Prospect Ave,Champaign,IL,40.13171,-88.25838,2.5,14,1,"Delis, Caterers, Event Planning & Services, Fast Food, Sandwiches, Food, Food Delivery Services, Restaurants, Pizza"
310,8i04GQgUY3g8q2iw7mewIQ,McDonald's,306 S Market St,Monticello,IL,40.0237941507,-88.5743495822,1.5,5,1,"Fast Food, Restaurants, Coffee & Tea, Burgers, Food"
311,epvLkQNL6MOvk3s6JlTntA,Carmon's Restaurant,415 N Neil St,Champaign,IL,40.119807,-88.2438559,3.5,45,0,"Creperies, French, Restaurants"
312,ZO_BLTRN9hsxjO5LsNnp0Q,Aldi,801 Interstate Dr,Champaign,IL,40.1487337339,-88.2567358017,3.5,17,1,"Food, Grocery"
313,XYXgAYal0NGDNAxrJSgGzg,WackyNackies Gifts & Cafe,206 W Washington St,Monticello,IL,40.0254942,-88.5730451,5.0,3,0,"Flowers & Gifts, Coffee & Tea, Candy Stores, Shopping, Specialty Food, Food"
314,mZJdFjxvVddqPN5RZdKSHg,Jurassic Grill,404 E Green St,Champaign,IL,40.1104457,-88.2330726,4.0,49,1,"Burgers, American (Traditional), Restaurants, Food"
315,IGb6MjNdPRsNVNEplGG3RA,The Blind Pig Brewery,120 N Neil St,Champaign,IL,40.1171577,-88.2433759,4.5,36,1,"Food, Breweries"
316,pCer-vIZM05p423MFmiSng,Kofusion,"701 S Gregory St, Ste F",Urbana,IL,40.106822678,-88.2217281018,3.5,52,1,"Asian Fusion, Restaurants, Sushi Bars"
317,0Tiq09V_kdMFPa1cL6I0AA,Culver's,2302 S Neil St,Champaign,IL,40.085464,-88.2461754,3.5,27,1,"Restaurants, Fast Food, Burgers, Food, Ice Cream & Frozen Yogurt"
318,tqxS-gA5zhBvdI5lk7kDGg,Maize at the Station,100 N Chestnut St,Champaign,IL,40.1168537098,-88.2406103611,4.0,61,1,"Mexican, Restaurants"
319,NZ3A0xYdnmIG68mZeZV6AA,Bunny's Tavern,119 W Water St,Urbana,IL,40.1131915,-88.2083041,4.0,41,1,"Nightlife, Bars, Dive Bars, Restaurants, American (Traditional)"
320,RTmIbq33chUSa-etGiF8Lg,Bombay Indian Grill,302 S 1st St,Champaign,IL,40.114132,-88.238369,3.5,59,0,"Restaurants, Indian, Pakistani"
321,tCCBl_sHPQsJg37g2fjRpA,McDonald's,2909 W Kirby Ave,Champaign,IL,40.0979104613,-88.2938878146,1.5,14,1,"Fast Food, Food, Restaurants, Burgers, Coffee & Tea"
322,S_9OaE_RBWBIXnUKvxJKsQ,Watson's Shack & Rail,211 N Neil St,Champaign,IL,40.117733,-88.2439031,4.0,175,1,"Breakfast & Brunch, American (Traditional), Nightlife, Restaurants, Bars, Whiskey Bars"
323,wgImSrYc5LOcFaMcbOuxkg,Domino's Pizza,1803 W Kirby Ave,Champaign,IL,40.097239,-88.2768244,3.5,12,1,"Restaurants, Chicken Wings, Sandwiches, Pizza"
324,ZQH1s3nTDyclGrQ160NrEQ,Lil Porgy's Bar-B-Que,101 W University Ave,Urbana,IL,40.116214,-88.207915,3.5,92,0,"Barbeque, Restaurants"
325,Wn8QXr2VdAR9J4JPsrlfgg,Bibbs,110 W St,Gifford,IL,40.3068808596,-88.0213274062,3.0,4,0,"American (Traditional), Restaurants"
326,9HP13JaP9nmN3qX5v0jamw,Ruby Tuesday,2301 North Prospect Avenue,Champaign,IL,40.1437944,-88.2583963,3.0,32,0,"Sandwiches, Burgers, Restaurants, American (Traditional)"
327,aaJ-RaUdHyB4R3U4qNbRBA,Lovely Nails,"1903 N Neil St, Unit D",Champaign,IL,40.1392818536,-88.2446583173,4.0,24,1,"Restaurants, Hair Salons, Beauty & Spas, Nail Salons, Pizza"
328,H5oG0QHM5bseQeASHesfMA,United Fuel,1802 N Cunningham Ave,Urbana,IL,40.1292591,-88.197529,2.5,4,1,"Food, Food Trucks, Local Services, Propane"
329,dqYP2mtarTPoVMRTgAkeFg,Scratch,227 E Lincoln St,Saint Joseph,IL,40.1111871144,-88.0411509052,5.0,5,1,"Sandwiches, American (Traditional), Seafood, Restaurants"
330,PTQVaWA-I5ZLzwy5oBbVMg,Pekara Bakery and Bistro,116 N Neil St,Champaign,IL,40.1170221,-88.2433072,3.5,155,1,"Sandwiches, Gelato, Food, Creperies, Restaurants"
331,quBiDNgMLYoWP6Q2YSgZLg,Don Juan Cocina Mexicana & Cantina,1106 W University Ave,Urbana,IL,40.1166989,-88.223116,3.0,28,0,"Mexican, Restaurants"
332,dEKnEqm6Q44copoadiT8Iw,Perkins Restaurant & Bakery,1214 W University Ave,Urbana,IL,40.1166491,-88.2253879,2.5,62,1,"American (Traditional), Food, Bakeries, Restaurants, Cafes, Breakfast & Brunch"
333,th4pZ5LkoIIkb1Vmu_m2DA,Meatheads,1305 S Neil St,Champaign,IL,40.101522,-88.24448,4.0,174,1,"Burgers, Restaurants"
334,Ek_1V1RMxwJ_hK9YO5mumw,The Vault,121 East Ave,Ogden,IL,40.1131394508,-87.9564192519,4.0,8,0,"Bars, Barbeque, Nightlife, Burgers, American (New), Restaurants"
335,JoHDOuZ1BnFi63PgC_zYeQ,Amaravati  Indian Royal Cuisine,2501 Village Green Pl,Champaign,IL,40.081760817,-88.2961581481,3.5,40,0,"Indian, Restaurants"
336,QxbVPV2xndVP-nT1IRKF1w,El Torero,2312 W Springfield Ave,Champaign,IL,40.1131042,-88.2857576,3.5,17,0,"Mexican, Restaurants"
337,5lw5rrhFMz-liykUn8dGSw,Fernando's Food,44 E Sprinfield,Champaign,IL,40.112846,-88.240511,5.0,44,1,"Food Delivery Services, Mexican, Food, Food Trucks, Restaurants"
338,-zEpEmDfFQL-ph0N3BDlXA,Sakanaya,403 E Green St,Champaign,IL,40.1101671,-88.2329249,4.5,450,1,"Japanese, Sushi Bars, Restaurants"
339,eY8afQl17K4N2bf3z6nkCQ,HomeTown Buffet,2306 N Prospect Ave,Champaign,IL,40.144166,-88.257164,2.0,22,0,"Restaurants, American (New), Buffets, Breakfast & Brunch"
340,LfjgSONDpGF7RJOCv-r9Dg,Rantoul Public House,108 N Garrard St,Rantoul,IL,40.311039,-88.1570602,4.0,6,0,"Nightlife, Pubs, American (Traditional), Burgers, Bars, Restaurants"
341,f_CDR6H4QL1K3SeaBe7r3g,Sammy's Pancake House,1206 N Mattis Ave,Champaign,IL,40.1286237,-88.2766444,3.5,63,1,"Restaurants, Breakfast & Brunch, Food"
342,m4DwPVxmFDQE_FnGIOa3cQ,Sunny China Buffet,1703 Philo Rd,Urbana,IL,40.0976392,-88.1912166,4.0,18,1,"Buffets, Chinese, Restaurants"
343,vKYpxfU-51z-pc16wrGVng,Stone Baked Pizzeria,901 S 4th St,Champaign,IL,40.107665,-88.233749,3.0,3,0,"Restaurants, Pizza"
344,doEpdTg3l55-IWemTlG3tg,Jimmy John's,1811 West Kirby Ave,Champaign,IL,40.0975022,-88.2770245,3.0,18,1,"Fast Food, Sandwiches, Delis, Pizza, Food Delivery Services, Food, Restaurants"
345,iZleRh4SOtf4GquA5L8WXw,Crane Alley,115 W Main St,Urbana,IL,40.1121427,-88.2080353,4.0,192,1,"Restaurants, Nightlife, Bars, American (Traditional)"
346,ATbSKgTbl8mCBK0EQZPr3A,Punch!,217 N Neil St,Champaign,IL,40.1180127,-88.2440647,5.0,4,1,"Restaurants, Cocktail Bars, Nightlife, Lounges, Bars, American (Traditional)"
347,-865Ps6xb3h1LP67JcQ3mA,Rainbow Garden,202 E University,Urbana,IL,40.1167919,-88.205811,3.0,41,1,"Restaurants, Chinese"
348,qeJnMI5RmyJ2TZvkqvjn6Q,Biaggi's Ristorante Italiano,2235 S Neil St,Champaign,IL,40.0865504478,-88.2469860629,3.5,199,1,"Event Planning & Services, Caterers, Italian, Restaurants, Pizza"
349,7AlULGZI1pHt0imODsqdkg,Potbelly Sandwich Shop,501 E Green St,Champaign,IL,40.110141,-88.231874,4.0,40,1,"Sandwiches, Restaurants, Delis, Fast Food, Salad, Soup"
350,Z71v81M8PWDsKhi9znwX7A,Project 47 Smokehouse,101 N Lombard St,Mahomet,IL,40.1943993308,-88.4000693634,4.0,22,1,"Barbeque, Restaurants, Bars, Nightlife"
351,SqxYhx0znOqCfaVIc7c-FA,Carmona's Cafe,106 S Charter St,Monticello,IL,40.0252183,-88.5727367,3.0,5,0,"Diners, Cafes, Restaurants"
352,V8ZeUbrMJ_q4FTgh3Fp2Nw,El Progreso Tienda Y,1017 W Bloomington Rd,Champaign,IL,40.1327076,-88.2611369,4.0,4,1,"Specialty Food, Meat Shops, Restaurants, Food, Grocery, Mexican"
353,D0KX5BQsbaIcWd-TpQ4wLg,Peking House Restaurant,806 Eastwood Dr,Mahomet,IL,40.196657487,-88.3959178407,4.5,20,1,"Korean, Chinese, Thai, Restaurants"
354,ejdBoVvEdn5fdycuJRen8Q,First Wok,1805 Philo Rd,Urbana,IL,40.0962948,-88.1920978,4.0,38,1,"Chinese, Restaurants"
355,O1Sp0pDa8wmMfOC-FUGZFQ,Dairy Queen Grill & Chill,3602 N Mattis Ave,Champaign,IL,40.1585606989,-88.2762676477,2.0,16,1,"Ice Cream & Frozen Yogurt, Fast Food, Restaurants, Food, Burgers"
356,BcrFZDyviqw_wF9oQQ5qVA,Caffe Bene,524 E Green St,Champaign,IL,40.1105412,-88.2310541,4.5,35,1,"Coffee & Tea, Food"
357,A_wn7gdvQAv5F2-0CBjgEA,Buffalo Wild Wings,1335 Savoy Plaza Dr,Savoy,IL,40.071707,-88.251885,3.0,80,1,"Nightlife, Bars, Sports Bars, Restaurants, American (Traditional), Burgers, Chicken Wings"
358,rl39sZ-Jx7QAG-FHsdAD5g,Mansfield General Store,107 N Jefferson St,Mansfield,IL,40.2119444,-88.5057385,4.5,3,1,"Restaurants, American (Traditional), Fashion, Department Stores, Ice Cream & Frozen Yogurt, Grocery, Shopping, Food"
359,jeTfL2kCyBtmFGSrSQHqVw,Bacaro,113 N Walnut St,Champaign,IL,40.1168917,-88.2426766,4.0,154,0,"American (New), Restaurants, Bars, Italian, Nightlife, Lounges, Wine Bars"
360,9zGkU1ahmYCn3DlnKOXhqA,Arby's,1502 N Prospect Ave,Champaign,IL,40.1311947,-88.2575824,3.0,7,1,"Sandwiches, Fast Food, Restaurants"
361,_zCwyuW5XrRKw8oK8EM49A,Burrito King,404 E Green St,Champaign,IL,40.1104696,-88.2331177,3.5,21,0,"Restaurants, Mexican"
362,mvhokWwVKgfE-koLlc4VEw,Auntie Lee's Chinese Kitchen,"49 E Green St, Ste B",Champaign,IL,40.1101985,-88.2402729,2.5,25,1,"Szechuan, Restaurants, Chinese"
363,vsoEZauF4lrADIqCYXySFQ,Chopstix,"202 E Green St, Ste 1",Champaign,IL,40.1105528,-88.2366073,3.0,73,1,"Chinese, Restaurants"
364,1xeyFW6daV8jdt3dM1nhqQ,Subway Restaurants,2409 Village Green Place,Champaign,IL,40.0836244,-88.2966288,2.5,6,1,"Restaurants, Sandwiches, Fast Food"
365,sy8lzojvZUcEf0qgytzznQ,Bent Bean,1602 E University,Urbana,IL,40.1161869,-88.187537,5.0,5,0,"Specialty Food, Candy Stores, Food, Chocolatiers & Shops"
366,w2xwgqHM7dJlHfyu4ouhBg,Azzip Pizza,505 E Green St,Champaign,IL,40.1099251,-88.2314617,4.5,49,0,"Salad, Italian, Restaurants, Pizza"
367,wBQRhH9fEqME-sPU5sUlaw,Harold's Chicken Shack,502 E John St,Champaign,IL,40.1092117,-88.23147,4.0,4,0,"Southern, Restaurants"
368,haDgDTREZ_mVBAmhRYqxSA,Billy Bob's,105 E Broadway St,Ogden,IL,40.113028,-87.95492,3.5,10,1,"Restaurants, American (Traditional), Bars, Nightlife"
369,hP2DOm7E2H4P7MOS7XN_SQ,Hamilton Walker's,201 N Neil St,Champaign,IL,40.117491,-88.243875,3.5,170,1,"Beer, Wine & Spirits, Seafood, Restaurants, Steakhouses, Food, Nightlife, Bars"
370,EI1JbmO_Le9u3qaYJtlMjA,Black Rock Pizza,142 Lincoln Sq,Urbana,IL,40.1112417,-88.2071629,4.5,3,0,"Pizza, Restaurants"
371,jUddhNjGAE6W7MQKaUEZ4Q,Ryan's,1004 W Anthony Dr,Champaign,IL,40.136306,-88.2619969,2.0,21,0,"American (New), Breakfast & Brunch, Buffets, Steakhouses, Restaurants"
372,rVu3i1E4ekttmE1tzN-1tg,Walgreens,1713 W Springfield Ave,Champaign,IL,40.1122526,-88.2761504,1.5,18,1,"Convenience Stores, Beauty & Spas, Food, Photography Stores & Services, Shopping, Cosmetics & Beauty Supply, Drugstores"
373,0-WocGTpO3Zm4q1Zzz49Rw,Sushi Kame,132 W Church St,Champaign,IL,40.1185309,-88.2448176,3.5,149,1,"Japanese, Sushi Bars, Restaurants"
374,76r8VHva6jgDIAn6rRMuMw,Orange Leaf Frozen Yogurt,512 E Green St,Champaign,IL,40.1105073,-88.2314522,3.5,7,0,"Food, Do-It-Yourself Food, Desserts, Ice Cream & Frozen Yogurt"
375,yw3dfUD1PO8EdGLHdbGevA,Espresso Royale,1402 W Gregory Dr,Urbana,IL,40.104703,-88.2272266767,2.0,8,1,"Restaurants, Coffee & Tea, Bagels, Food"
376,IHJKFxoWXONoz-JamfOnlg,Meijer,2500 S Philo Rd,Urbana,IL,40.0844098,-88.1896857,3.0,25,1,"Fashion, Food, Department Stores, Grocery, Electronics, Gas Stations, Shopping, Automotive, Toy Stores"
377,ETxB6iSdRyhX4PTY0AnAIA,Bar M,208 W Main St,Urbana,IL,40.112655,-88.2093142,4.0,7,0,"American (New), Food, Wine Bars, Bars, Nightlife, Beer, Wine & Spirits, Restaurants"
378,MA5R-mV6ljRM1MK6Mdiv5g,Panda Express,2000 N Neil St,Champaign,IL,40.142039,-88.244042,3.5,11,1,"Fast Food, Banks & Credit Unions, Restaurants, Chinese, Financial Services"
379,5CSGxhesXkz2XNQB8AP6Kw,Spoon House Korean Kitchen,616 E Green St,Champaign,IL,40.1105931,-88.2296109,3.5,90,1,"Restaurants, Korean"
380,Wdy7J_EOL2lvDKSscdQ4Pw,Black Rock Pizza Co.,114 S Race St,Urbana,IL,40.111959,-88.208652,4.0,11,0,"Pizza, Restaurants, Nightlife, Sports Bars, Bars"
381,z50FVnW-Lcevj8z2KZQ_gw,Beri Frozen Yogurt,701 S 6th St,Champaign,IL,40.1102758,-88.2304104,4.0,13,0,"Food, Ice Cream & Frozen Yogurt"
382,qQu--8A6Ic0rytLfI1r4dg,Wendy's,1905 S Neil St,Champaign,IL,40.0908819198,-88.2463012616,1.5,5,0,"Restaurants, Burgers, Fast Food"
383,ihv1VafxDITsnYsn0ug4tQ,Mahomet Iga,202 Eastwood Dr,Mahomet,IL,40.1961495,-88.3951619,3.0,11,1,"Bakeries, Restaurants, Grocery, Food"
384,OKHHpjAhYyJrxulgCgngFg,The Pop Stop,,Champaign,IL,40.1166102,-88.2412504,5.0,4,1,"Food, Food Trucks"
385,BoTQepQTjGbTXA4g4Hj-WA,Antonio's Pizza,619 E Green St,Champaign,IL,40.1100646,-88.2296092,4.0,78,0,"Pizza, Restaurants"
386,HAgPykErkXpPJlwOHbY01Q,J Gumbo's,"700 S Gregory St, Ste D",Urbana,IL,40.1065109,-88.2218027,4.0,93,1,"Restaurants, Cajun/Creole"
387,2_70xR8dAmNKj9zP1cAhWQ,Boomerang's Bar & Grill,1309 E Washington St,Urbana,IL,40.1050015,-88.1925224,4.0,22,1,"Bars, Restaurants, American (Traditional), Nightlife"
388,CObgcxFJuEXZZpm4Mw3z1A,McDonald's,1605 S Neil,Champaign,IL,40.0975206791,-88.2452390296,2.0,35,1,"Fast Food, Burgers, Coffee & Tea, Restaurants, Food"
389,X3-dI5LGMdv6EQ8OLoOU9w,Casey's,2100 E University Ave,Urbana,IL,40.115663,-88.182324,2.0,11,1,"Sandwiches, Food, Convenience Stores, Pizza, Gas Stations, Automotive, Restaurants"
390,i_t8WTwztuHweRqQ89hmuQ,Panda Express,2521 N Prospect Ave,Champaign,IL,40.1460326346,-88.2585361671,3.5,22,1,"Fast Food, Restaurants, Chinese"
391,QtRgDAK6k0JELN2_hi0ayw,Papa Murphy's,"114 North Vine Street, Suite C",Urbana,IL,40.1134464,-88.2030631,3.5,13,1,"Restaurants, Pizza"
392,RofPcfgxItpYw1eQ3e1Hjw,Nitaya Thai Restaurant,134 W Church St,Champaign,IL,40.1185125,-88.2449947,3.0,51,0,"Restaurants, Thai"
393,BsxefnHbrpDN7HB2hJrEiw,Taco Motorizado,607 N Cunningham Ave,Urbana,IL,40.1186429,-88.2041528,4.5,49,1,"Restaurants, Food Trucks, Vegetarian, Food, Mexican, Street Vendors"
394,w5YH9J_ReVTKXobqs7yYZg,Subway Restaurants,1319 Dunlap,Savoy,IL,40.070305,-88.249625,2.0,6,1,"Restaurants, Sandwiches, Fast Food"
395,VsLcYJHIat78FUyP08GusA,Boston Pizza,2501 N. Prospect Ave,Champaign,IL,40.1451769,-88.258404,2.0,4,0,"Restaurants, Pizza"
396,ALUCsSzpxI48xgQ-f1pJeQ,Tacos Locos Food Truck,1001 West Bloomington Rd,Champaign,IL,40.133023,-88.2608329,4.5,6,1,"Food Trucks, Food"
397,pVLZQRs67CF4gZCEYCe_3Q,Hickory River Smokehouse,1706 N Cunningham Ave,Urbana,IL,40.1287828,-88.1977574,3.5,96,1,"Barbeque, Food, Smokehouse, Restaurants, American (Traditional)"
398,dn0ZzSIqGMMHJqUX2By7Zw,Smoothie King,1912A Round Barn Rd,Champaign,IL,40.1121223673,-88.2792327797,4.5,12,1,"Juice Bars & Smoothies, Food, Health Markets, Specialty Food"
399,KSTMUvXUN4WuwhpW4jbiSg,FieldHouse 219,219 West Washington St,Monticello,IL,40.0253328,-88.5734094,4.5,10,1,"American (Traditional), Bars, Nightlife, Restaurants, Sports Bars"
400,NFUINoS0tUsp3qy7wLIB1A,Dorcas Restaurant,403 E Green St,Champaign,IL,40.1100319,-88.2330779,4.0,7,0,Restaurants
401,Hw0hdZnM7z5uBTwbW8jHMA,Penn Station,906 W Town Center Blvd,Champaign,IL,40.1432142,-88.2591336,3.5,24,1,"Restaurants, Sandwiches"
402,wfO1xdAeJMb_miGDU19W-w,Carmon's Bistro,415 N Neil St,Champaign,IL,40.119807,-88.2438559,3.5,18,0,"French, Restaurants, Cafes"
403,s173l3ubdDLHeFIBO3ydrw,La Bamba,1905 Glenn Park Dr,Champaign,IL,40.118884,-88.2782405,3.0,32,1,"Mexican, Restaurants"
404,t0HT9od2xZ0Fc5a0PFB2BQ,Kam's,618 E Daniel St,Champaign,IL,40.1080694,-88.2295377,2.0,64,1,"Pubs, Restaurants, Sports Bars, Nightlife, Bars, Comfort Food"
405,Hx-um-V0sTHjMZX0UcW0kA,Dairy Queen,601 E Oak St,Mahomet,IL,40.191599291,-88.4018835425,1.5,29,1,"American (Traditional), Ice Cream & Frozen Yogurt, Food, Fast Food, Restaurants, Burgers"
406,C3d4HqDjWq9e_0cPfmPykg,Moe's Southwest Grill,2041 S Neil St,Champaign,IL,40.0902821733,-88.246343316,3.0,34,1,"Restaurants, Tex-Mex, Diners, Southern, Mexican, Fast Food"
407,TPGX7BhNG2CX3DV54Pt34g,Beckman Cafe,405 N Mathews Ave,Urbana,IL,40.1158179,-88.2274307,3.0,6,1,"Cafeteria, Sandwiches, Food Stands, Restaurants"
408,nyI3q0CseFbPbTobHuzgkw,Pia's Sports Bar & Grill,1609 W Springfield Ave,Champaign,IL,40.1124769,-88.2737372,3.0,11,1,"Bars, Nightlife, Venues & Event Spaces, Dive Bars, Sports Bars, American (Traditional), Event Planning & Services, Restaurants"
409,boIILzBqhjWhq4G0BsB5_A,Miga,"301 N Neil St, Ste 104",Champaign,IL,40.1189773,-88.2442721,4.0,183,1,"Sushi Bars, Asian Fusion, Japanese, Restaurants, Food, Desserts, Nightlife, American (New), Cocktail Bars, Lounges, Bars"
410,-B1en4UZJzJEBiFjp1OJSQ,Wedding Cakes by Rosie,2128 County Rd 900 E,Champaign,IL,40.190167,-88.2955253,5.0,3,1,"Bakeries, Food"
411,PjOobIUE5onVqU_t7gskrQ,Garcia's Pizza In a Pan,Second & Green,Urbana,IL,40.110231,-88.237045,3.0,8,0,"Restaurants, Pizza"
412,DFZnNrIZu1_oHv-4aaxJbg,Taste Of Thai,124 E Sangamon Ave,Rantoul,IL,40.3103985,-88.1576889,4.5,17,1,"Asian Fusion, Restaurants, Vietnamese, Thai"
413,d_Wm9CpzIo_0T-XLfq1UcA,The Hub Champaign,"601 S 1st St, Ste 102",Champaign,IL,40.1111448,-88.2391289,3.0,69,1,"American (Traditional), Bars, Dance Clubs, Sports Bars, Restaurants, Nightlife, Gastropubs"
414,LDhN6xxOvvC0aQEo6jyO3g,Filippo's Pizza & Italian Food,200 S Market St,Monticello,IL,40.0248672,-88.5740648,4.5,15,1,"Restaurants, Pizza, Italian"
415,BKLWat64KRYzsT2DgY6Xxg,Jarling's Custard Cup,309 W Kirby Ave,Champaign,IL,40.0977213,-88.2477415,4.0,251,1,"Desserts, Local Flavor, Food, Ice Cream & Frozen Yogurt"
416,0VC60UXcb-x7WawdPP5xYw,El Rancho Grande II,505 Commerce Dr,Savoy,IL,40.0598863,-88.2520429,4.0,4,1,"Event Planning & Services, Caterers, Seafood, Mexican, Restaurants"
417,CNXUru6x_qrG8R-IeOuwgQ,McDonald's,1705 S Philo Rd,Urbana,IL,40.0973688669,-88.1911993667,2.0,7,1,"Fast Food, Burgers, Coffee & Tea, Food, Restaurants"
418,RQxLNvAra_MUUPHdhukilA,Houlihan's,1900 S 1st St,Champaign,IL,40.0937168,-88.2373608,3.0,104,1,"American (New), Nightlife, Restaurants, Bars"
419,avIdLrNHtJDsth8w3i4WOg,Red Bicycle Ice Cream,"2740 S Philo Rd, Ste D",Urbana,IL,40.0828635,-88.1890766,4.0,25,0,"Coffee & Tea, Juice Bars & Smoothies, Food, Desserts, Ice Cream & Frozen Yogurt"
420,8mKV3KThn3wXGL3OVxrCNg,Sitara,114 S Race St,Urbana,IL,40.111959,-88.208652,4.0,170,1,"Pakistani, Vegetarian, Indian, Restaurants"
421,b8iHKolCsC4ZTM8X9-L01A,Pizza Hut,411 E Green St,Champaign,IL,40.1101088,-88.2322903,2.0,17,1,"Italian, Restaurants, Pizza, Chicken Wings"
422,AW_d5hMf7sI6yHrz4Ujv8w,Casa Real,1204 Bear Ln,Monticello,IL,40.0088287873,-88.5763521865,4.0,9,1,"Chicken Wings, Bars, Nightlife, Mexican, Restaurants, Cocktail Bars, New Mexican Cuisine"
423,V-_Kh0RtKcKdQ0ON4eVQ-Q,Buca di Beppo Italian Restaurant,"Market Place Shopping Center, 2000 N Neil St",Champaign,IL,40.142536,-88.243055,3.5,26,0,"Pizza, Food, Event Planning & Services, Caterers, Italian, Restaurants"
424,cRZm_9Bh9q5S4XhV1etJng,Walmart Supercenter,505 S Dunlap Ave,Savoy,IL,40.048969,-88.256051,2.0,10,1,"Discount Store, Fashion, Department Stores, Shopping, Drugstores, Electronics, Food, Grocery"
425,e0prCZXtHGQIKeQ_wTW3uw,Cafe Kopi,109 N Walnut St,Champaign,IL,40.1168129,-88.2427527,4.0,182,1,"Salad, Desserts, Food, Coffee & Tea, American (Traditional), Cafes, Sandwiches, Restaurants"
426,abA0s0uxoeOn7zNm-1dDxw,Mia Za's Cafe,629 E Green St,Champaign,IL,40.1101271,-88.2292118,3.5,94,1,"Sandwiches, Restaurants, Italian, Pizza, Cafes"
427,RucrUwlX6hvGlUOrakViYw,Baldarotta's Porketta & Sicilian Sausage,300 S Broadway Ave,Urbana,IL,40.110557,-88.206663,5.0,8,1,"Caterers, Event Planning & Services, Sandwiches, Restaurants, Pizza"
428,m8qGdllgcUSqZmcryQWM9A,McDonald's,4910 N Market St,Champaign,IL,40.178005,-88.240266,1.5,10,1,"Burgers, Restaurants, Coffee & Tea, Fast Food, Food"
429,c9PkUjunOI49r9oO4ZJcmQ,Taco Bell,1707 S. Neil Street,Champaign,IL,40.096139,-88.245141,2.5,20,1,"Restaurants, Fast Food, Mexican, Tacos, Tex-Mex"
430,o13eH93qmWVNFZogkjhd9w,Courier Cafe,111 N Race St,Urbana,IL,40.1128225269,-88.2090229914,4.0,383,1,"Burgers, American (Traditional), Ice Cream & Frozen Yogurt, Restaurants, Local Flavor, Cafes, Breakfast & Brunch, Food"
431,CJ0sbMmixbh21d9fUoBEMg,Espresso Royale,1117 W Oregon St,Urbana,IL,40.1068514924,-88.2236856091,3.5,62,1,"Restaurants, Food, Coffee & Tea"
432,x6fvLWdx-Kb8_oMeqaHhRQ,Chatime Champaign,"512 E Green St, Ste C",Champaign,IL,40.1105623,-88.2314528,4.5,30,0,"Coffee & Tea, Food, Shaved Ice, Bubble Tea"
433,yxMhVaB65N5VGEWSvU9Qzw,Super Pantry,407 N Dunlap Ave,Savoy,IL,40.05889,-88.251482,1.5,3,0,"Food, Automotive, Gas Stations, Convenience Stores"
434,8BYJLNeidv2ARtARUXVu4Q,Industrial Donut,501 Commerce Dr,Savoy,IL,40.0598,-88.252095,4.5,19,1,"Coffee & Tea, Donuts, Food, Restaurants, Breakfast & Brunch"
435,ViJjcvNH_Up1mXZ5NieApg,County Market,331 E Stoughton St,Champaign,IL,40.1131008,-88.23391,3.5,37,1,"Food, Grocery"
436,5jXwI9WpDxGDmzmkmE0RTg,Oishi,2501 N Prospect Ave,Champaign,IL,40.1451443,-88.2585174,3.0,130,1,"Sushi Bars, Restaurants, Asian Fusion, Thai, Japanese"
437,6o6XxnI8RWhnAVSdxqCJWQ,Jet's Pizza,"512 S Neil St, Ste B",Champaign,IL,40.110688,-88.243092,3.5,55,1,"Pizza, Restaurants"
438,4OuEWZHLRISfdfoz_DOZIw,Insomnia Cookies,"502 E John St, Ste B1",Champaign,IL,40.1092224,-88.231551,3.0,84,1,"Desserts, Bakeries, Food, Food Delivery Services"
439,tH9fJdyaSM1SE7Fm6X11cg,Starbucks,1401 W Green St,Urbana,IL,40.109748,-88.227223,3.5,6,1,"Coffee & Tea, Food"
440,K2lscpx0S9wpqNz0s9AIwQ,Giordano's - Champaign,2000 N Neil St,Champaign,IL,40.1422324798,-88.2446145825,3.0,53,0,"Italian, Pizza, Restaurants, Salad"
441,joIZbPR6H-2MTGQGLzCXsA,Geschenk Boutique,228 E Lincoln,Saint Joseph,IL,40.1116104,-88.0411611,4.5,7,1,"Ice Cream & Frozen Yogurt, Coffee & Tea, Gift Shops, Jewelry, Shopping, Cards & Stationery, Food, Flowers & Gifts, Arts & Crafts, Event Planning & Services"
442,syP9qsN2-TiMbxh2zv1_NQ,Papa Del's Pizza At the Crossing,2510 Village Green Pl,Champaign,IL,40.0817601,-88.2959863,3.5,32,0,"Pizza, Restaurants"
443,x-SnoqTmBip_tRgw4EvCAg,Sammers Grill & Bar,108 N Garrard Rantoul,Rantoul,IL,40.311037,-88.157057,4.0,3,0,"Sandwiches, Restaurants, American (Traditional), Burgers, Bars, Nightlife, Food"
444,TjKE1Ji-XAdYDlxYMKvZAw,Krispy Krunchy Chicken,900 W Bradley Ave,Champaign,IL,40.127171,-88.257965,4.0,13,1,"Chicken Wings, Restaurants"
445,ODURDhURWmZr6b--O4nt3w,Jupiter's Pizzeria and Billiards,39 E Main St,Champaign,IL,40.1177419112,-88.241513984,3.5,101,1,"Lounges, Bars, Pizza, Pool Halls, Restaurants, Nightlife"
446,1YqkSk2xorNWPOoieIMApQ,Great Harvest Bread - Champaign,2149 S Neil St,Champaign,IL,40.087815,-88.247965,4.5,21,0,"Event Planning & Services, Sandwiches, Caterers, Food, Bakeries, Restaurants, Salad, Breakfast & Brunch, Burgers"
447,vCopginiBsz1STNhQPb8XA,The Dancing Dog Eatery & Juicery,126 W Main St,Urbana,IL,40.1127199,-88.2085029,4.0,109,1,"Vegetarian, Juice Bars & Smoothies, Sandwiches, Restaurants, Food, Mexican, Kosher, Desserts, Tacos, Vegan"
448,SgG5E7PUrCIsEMP0BVSlTg,Cheese and Crackers,1715 W Kirby,Champaign,IL,40.0975748,-88.274709,4.0,82,1,"Ethnic Food, Seafood Markets, Specialty Food, Chocolatiers & Shops, Delis, Food, Cheese Shops, Restaurants"
449,5r-kh_n_ivSmkrfGMtbtog,Baskin Robbins,515 S Neil St,Champaign,IL,40.110518,-88.2439538,2.0,8,1,"Ice Cream & Frozen Yogurt, Food, Restaurants"
450,zTGxLMOd9crAz0XNzqrcrA,Empire Chinese Restaurant,"410 E Green St, Ste 1",Champaign,IL,40.1106376,-88.2324833,3.5,48,0,"Chinese, Restaurants"
451,NSzhahVpI_B32snhJHM0HA,Texas Roadhouse,204 N. Country Fair Dr,Champaign,IL,40.117932,-88.2810949,4.0,106,1,"Barbeque, American (Traditional), Restaurants, Steakhouses"
452,uGxZdLLgMQDvFSqiXyCg_w,Ambar India,605 S Wright St,Champaign,IL,40.1113654,-88.228907,3.5,68,1,"Indian, Restaurants"
453,u7jiuYiz-zVwsh0TGRHUIg,Burrito King,408 E Green St,Champaign,IL,40.1104308,-88.2326799,3.5,56,1,"Mexican, Restaurants"
454,eNeBda4br3HMg15-_jwokA,El Toro,221 E Lincoln St,Saint Joseph,IL,40.1112277,-88.0414944,3.5,19,1,"Restaurants, Mexican"
455,WDTzX_C2CbAwxBbqm-od6g,Cowboy Monkey,6 E Taylor St,Champaign,IL,40.1175386,-88.243133,3.0,50,1,"Arts & Entertainment, Pubs, Music Venues, Nightlife, Bars, Restaurants"
456,J7vl6cA5uF0PkqS2ejDTkQ,Dunkin Donuts  Baskin Robbins,404 W Universty Ave,Urbana,IL,40.1167504,-88.2113811,2.5,5,1,"Bagels, Coffee & Tea, Food, Donuts, Ice Cream & Frozen Yogurt"
457,KedpWqBphmRopwBd7trzFw,Wendy's,608 S Sixth St,Champaign,IL,40.1108047945,-88.2302965969,2.0,8,0,"Restaurants, Fast Food, Burgers"
458,fTcqd-yameQpFg22hNFxsQ,Bossa Nova Cafe,1 E Main St,Champaign,IL,40.1183166,-88.2429999,5.0,10,1,"Restaurants, Cafes"
459,BiBAQWfc67AFrXC92SrifA,Illini Union Ballroom Dining,1404 W Green St,Urbana,IL,40.1104062,-88.227563,2.5,7,1,"American (Traditional), Restaurants"
460,JCnFvoh7lU8PF_Yhh8bgOw,HuHot Mongolian Grill,902 Meijer Dr,Champaign,IL,40.1470254,-88.2586659,3.0,32,0,"Buffets, Mongolian, Food, Asian Fusion, Desserts, Restaurants"
461,1uWQHvSL7-7rsRuHaZhM_A,Save-A-Lot,220 N Broadway Ave,Urbana,IL,40.1143893,-88.2058657,2.0,4,1,"Grocery, Food"
462,y2V42mxWvVoH4NvUT_n8eg,Red Robin Gourmet Burgers and Brews,2010 N Neil St,Champaign,IL,40.1411239,-88.2462019,2.5,74,1,"African, American (Traditional), Restaurants, Burgers"
463,Kws-gPJjF4RxLxJE_2BjKQ,Mr. Kyoto,"611 E Green St, Ste A",Champaign,IL,40.1104378577,-88.2297856361,3.5,64,0,"Restaurants, Food, Ramen, Asian Fusion, Japanese, Sushi Bars, Poke, Gluten-Free"
464,wr3cwXmVxxISJ75aOugD9w,Subway Restaurants,725 W. Champaign Ave,Rantoul,IL,40.3080709067,-88.173396681,3.5,4,1,"Restaurants, Sandwiches, Fast Food"
465,xLeOANU-lqtDOIV6Owm3EQ,Mas Amigos Truck,899 W Bradley Ave,Champaign,IL,40.1270780274,-88.2578811049,3.5,6,0,"Restaurants, Mexican, Fast Food, Food Trucks, Food"
466,ngqQHvtrT8QxGF3e6yrmeg,Stagecoach At Gordyville,2203 County Rd 3000 N,Gifford,IL,40.312407,-88.039695,3.0,9,1,"Food, Pizza, American (New), Barbeque, Restaurants"
467,rNbAIbTn0zN8yNk0IV7dfQ,The Cake Artist's Studio,1100 W Bloomington Rd,Champaign,IL,40.1350982,-88.2632277,4.0,38,1,"Event Planning & Services, Food, Wedding Planning, Grocery, Bakeries, Restaurants"
468,KZG8txc-vzkfDt-4ZYeREA,Uncle Martin's Sports Bar,1104 N Cunningham Ave,Urbana,IL,40.123643,-88.200627,4.5,9,0,"Nightlife, Burgers, Bars, Restaurants"
469,bsrqpg0zJZG4NMhA0W28LQ,Espresso Royale,2401 Village Green Pl,Champaign,IL,40.083642,-88.2964578,4.0,16,1,"Food, Cafes, Coffee & Tea, Restaurants"
470,bkh5o6bCzDCovSkRYBsU1w,LongHorn Steakhouse,2101 N Prospect Ave,Champaign,IL,40.1413941,-88.2584758,3.0,73,1,"Restaurants, Barbeque, American (Traditional), Steakhouses"
471,2pbOSrbB5AtQIa240AXNvQ,Panera Bread,1903 Convenience Pl,Champaign,IL,40.138507,-88.243173,2.0,68,1,"Sandwiches, Soup, Salad, Breakfast & Brunch, Coffee & Tea, Bagels, Restaurants, Food, Bakeries"
472,-yZ78Hd2DKDqvxJKbCyELg,Stango Cuisine,140 Lincoln Square,Urbana,IL,40.110451,-88.206561,5.0,9,1,"American (New), African, Caribbean, Restaurants"
473,sKToYrrPP4VWzpIy94pLgg,Charleys Philly Steaks,203 N Lombard St,Mahomet,IL,40.195573,-88.3996748,3.5,6,0,"Cheesesteaks, American (Traditional), Restaurants, Fast Food"
474,ezFZVzNCtPdFATNGzCumjw,Super Wok,1737 W Kirby Ave,Champaign,IL,40.0973,-88.275177,3.0,9,1,"Restaurants, American (New)"
475,IYASJOu_TXz8PpPbt-Clbg,Sushi San,1401 W Green St,Urbana,IL,40.1094131,-88.2271693,2.0,4,1,Restaurants
476,pJlHbIoePemy_wQVpWTR2g,Burrito King,902 W University Ave,Urbana,IL,40.116597,-88.220285,2.5,3,1,"Food, Restaurants, Street Vendors, Fast Food, Mexican, Food Trucks"
477,yUB8CDsYMES3cN-xcHXCkQ,Flying Machine Coffee,208 W Main St,Urbana,IL,40.1123976963,-88.209259671,4.0,77,0,"Food, Coffee & Tea"
478,4hWDMVtfnpyY72_5QMbthA,Old Time Meat & Deli Shoppe,2018 S Neil St,Champaign,IL,40.091901,-88.245362,5.0,46,1,"Meat Shops, Food, Restaurants, Specialty Food, Delis"
479,rmHPZk6jT7NlfJU457oHwg,Espresso Royale Caffe,1401 W Green St,Urbana,IL,40.1094131,-88.2271693,3.0,9,0,"Coffee & Tea, Food, Restaurants"
480,t5u-p_DFv7c54p01P4NnCA,Walgreens,104 N Lombard St,Mahomet,IL,40.1944439,-88.3989516,2.5,3,1,"Beauty & Spas, Food, Convenience Stores, Drugstores, Shopping, Cosmetics & Beauty Supply"
481,b731rZn5w-LxgkT1PeuNYg,Walmart,2610 N Prospect Ave,Champaign,IL,40.1470724,-88.2549428,2.0,9,0,"Discount Store, Health & Medical, Grocery, Automotive, Drugstores, Tires, Optometrists, Mobile Phones, Department Stores, Fashion, Food, Shopping"
482,-05uZNVbb8DhFweTEOoDVg,Subway Restaurants,333 S Century Blvd,Rantoul,IL,40.3067751,-88.1554787,2.0,3,1,"Sandwiches, Restaurants, Fast Food"
483,TQg3tu8U3x8OaC2R4KKh7g,Mango Mango Creamery,"2000 N Neil St, Ste 714",Champaign,IL,40.1411129848,-88.2446333333,4.0,8,0,"Ice Cream & Frozen Yogurt, Bubble Tea, Restaurants, Food, Creperies, Juice Bars & Smoothies"
484,A_eABcl0LTts73RNo2Np2Q,Krannert Center for the Performing Arts,500 S Goodwin Ave,Urbana,IL,40.108013,-88.222747,5.0,26,1,"Health & Medical, Ticket Sales, Music Venues, Restaurants, Counseling & Mental Health, Venues & Event Spaces, Nightlife, Performing Arts, Event Planning & Services, Arts & Entertainment, Wedding Planning"
485,SCxtzXcvyk1hygdmOZqd1A,Mashawi Grill,617 E Green St,Champaign,IL,40.110041,-88.2296889,4.5,87,0,"Mediterranean, Arabian, Restaurants"
486,TGMyp8IVdeWZRbHiZ5a54A,Array Cafe,1206 W Gregory Dr,Urbana,IL,40.104993,-88.224893,3.5,3,1,"Cafes, Restaurants, Food"
487,4ZAy5ZCTWbduzzhtR0egHQ,Wingstop,114 N Vine St,Urbana,IL,40.1134471,-88.2030657,4.5,3,0,"Restaurants, Barbeque"
488,tEkUEOsxj9h0pzClYrGXMQ,Bar Guiliani,608 E Green St,Champaign,IL,40.110635,-88.229994,4.0,4,0,"Coffee & Tea, Food"
489,8pqANktAdy7crnxSLWRaYw,The Main Street Pub of Monticello,113 W Main St,Monticello,IL,40.0247314519,-88.5726846514,4.0,16,1,"Restaurants, American (Traditional)"
490,hPc-mAHv4jfKeXqOxYJuAw,Papa Murphy's,1753 W Kirby Ave,Champaign,IL,40.0972378,-88.2757788,3.0,10,1,"Pizza, Restaurants"
491,EoPd4SI9-mnkyb2CJcgkLA,Minneci's Ristorante,401 S 1st St,Champaign,IL,40.112801,-88.239078,3.5,36,0,"Restaurants, Italian"
492,bI_qjkPI5aCqXoDJDpqpBA,Pizza Hut,777 W Bridge St,Monticello,IL,40.0288442,-88.5794646,2.5,3,0,"Chicken Wings, Pizza, Restaurants, Italian"
493,D5tiB1t8VRQOvvI-zgkq3Q,Kennedy's at Stone Creek,2560 Stone Creek Blvd,Urbana,IL,40.087852,-88.170282,3.0,15,0,"American (New), Event Planning & Services, Venues & Event Spaces, Restaurants"
494,24UHe1SZ4cgm6u6bU_L6xA,Sushi Rock,621 E Green St,Champaign,IL,40.1100643,-88.229494,3.0,54,1,"Beer, Wine & Spirits, Restaurants, Food, Korean, Japanese, Asian Fusion, Sushi Bars"
495,wFBvqxzfkPgzG2EmGKcguw,Office the,214 W Main St,Urbana,IL,40.112708,-88.209562,2.0,4,0,Restaurants
496,vAUDxhbsWZKI8NJlsYwCMA,Flat Top Grill,607 S 6th St,Champaign,IL,40.1114257,-88.2304288,3.0,84,0,"Restaurants, Gluten-Free, Vegan, Do-It-Yourself Food, Vegetarian, Asian Fusion, Food"
497,hD4Qnd0_nK21BqUuB2MSfQ,Padanos Pizza,209 N Main St,Saint Joseph,IL,40.1127636,-88.041933,4.5,9,1,"Restaurants, Pizza"
498,tQaIWc9qeiB1IU163LKlAw,Panda Express,627 S Wright St,Champaign,IL,40.1105984,-88.2290979,3.0,23,1,"Chinese, Fast Food, Restaurants"
499,VVkO08qlcTCkCq6t5gLcpw,Hopscotch,802 W John St,Champaign,IL,40.1092735,-88.2561216,3.5,65,1,"Desserts, Caterers, Bakeries, Custom Cakes, Event Planning & Services, Cupcakes, Food"
500,5_cn7M-9swHrFbnqZtYGBQ,Bangkok Thai and Pho 911,"410 E Green St, Unit 3",Champaign,IL,40.1106376,-88.2324833,4.0,179,1,"Thai, Food, Restaurants"
501,tkbRjBlZm7ngEVSu22n0vg,Jimmy John's,710 W Champaign Ave,Rantoul,IL,40.308798,-88.173072,4.0,5,1,"Sandwiches, Restaurants, Delis, Fast Food"
502,TZ-g6oltK-tfLhrh28uADg,Howdy Burger,625 E Green St,Champaign,IL,40.1101761,-88.2293832,3.5,12,1,"Burgers, Hot Dogs, Restaurants"
503,w7v0_gmsAtZRmn6dL1Fqgw,Pokelab,605 S Sixth St,Champaign,IL,40.1108057882,-88.2306332823,3.0,32,1,"Sushi Bars, Seafood, Hawaiian, Poke, Restaurants, Food"
504,ka_oewRLyrXeX3NXakQwvA,Walmart,505 S Dunlap Ave,Savoy,IL,40.0489585,-88.2562,2.0,11,0,"Grocery, Discount Store, Drugstores, Mobile Phones, Fashion, Food, Shopping, Department Stores"
505,UmZdQID7QJoyg2R92mK3HA,Siam Terrace,212 W Main St,Urbana,IL,40.112708,-88.209446,4.0,199,1,"Thai, Sushi Bars, Restaurants"
506,kNtToQSP_Y5U8tznLXuCaw,Farren's Pub & Eatery,117 N Walnut,Champaign,IL,40.1170512,-88.2426386,4.0,294,1,"Bars, Nightlife, Restaurants, Pubs"
507,AZw_8ngMd8vnAbzKX7zPlw,Pizza Hut,1317 Savoy Plaza Ln,Savoy,IL,40.070779165,-88.251843,3.5,6,1,"Restaurants, Chicken Wings, Italian, Pizza"
508,RQKrr8j4jS_7ubGMfAwnIQ,Garcia's Pizza In A Pan,108 E Green St,Champaign,IL,40.110515,-88.237634,3.5,3,0,"Pizza, Restaurants"
509,UTrqsP-oQrwoIOmBv_Jtzg,Merry Ann's Diner,1103 W Oregon St,Urbana,IL,40.1068411,-88.2218579,3.5,60,1,"Restaurants, Diners, Breakfast & Brunch, American (Traditional)"
510,zFA_WIeqoejobKGnEDYtZQ,Casey's General Store 2007,102 S Prairie View Rd,Mahomet,IL,40.1961644,-88.3647192,2.5,3,1,"Food, Convenience Stores"
511,ZPREnm3Du71PYwtDuBJryQ,Elevate Trampoline Park,707 N Country Fair Dr,Champaign,IL,40.1240132,-88.2822253,2.0,4,1,"Pizza, Parks, Restaurants, Active Life"
512,rOPj68rUjK9tv84ShWaetg,BBQ Premium Chicken,"700 S Gregory St, Ste F",Urbana,IL,40.1065086,-88.2212475,3.0,40,1,"Restaurants, American (Traditional), Korean"
513,iBRwl7sirmvg22AYnMPONQ,Miko,407 W University Ave,Urbana,IL,40.116124,-88.21181,2.0,24,0,"Japanese, Sushi Bars, Restaurants, Korean, Vietnamese, Nightlife"
514,0ptR21GHRuQ1MFtxGNcxzw,Milo's Restaurant,2870 Philo Rd,Urbana,IL,40.0838527,-88.1904943,3.0,82,0,"Restaurants, American (New)"
515,_TWp4gqGF7tQUGloTClcNg,Brixx Wood Fired Pizza,2043 S Neil St,Champaign,IL,40.0900638618,-88.2464063362,3.0,73,0,"Nightlife, Bars, Gluten-Free, Pizza, Sandwiches, Vegan, Restaurants"
516,B9W60PTxn7XOZfk4BiTvyw,BrewLab Coffee,630 S 5th St,Champaign,IL,40.1106891,-88.2318795,4.5,35,1,"Food, Restaurants, Coffee & Tea, Cafes"
517,Cikls1ZzfgjCI0J4RKrQeA,Thornton's,101 Burwash Ave,Savoy,IL,40.0738739,-88.2491985,3.5,6,1,"Convenience Stores, Food, Automotive, Gas Stations"
518,N_W4JlpCw02VPSf5Mrxwqg,Dunkin',607 E. Green St,Champaign,IL,40.1100591,-88.2300103,3.0,9,1,"Coffee & Tea, Donuts, Food"
519,i9M6oO2LMUrrEytHnHjyLA,Kaiyo Japaneese Restaurant,2501 N Prospect Ave,Champaign,IL,40.1451769,-88.258404,3.5,15,0,"Sushi Bars, Japanese, Restaurants"
520,iDDW5kjoLVN9rqrGM0cwjg,Rice Garden,1401 W Green St,Champaign,IL,40.109976,-88.268995,1.5,4,0,"Chinese, Restaurants"
521,iprknXfI079PRm80pdeuKA,Tsaocaa,608 S 6th St,Champaign,IL,40.1108192342,-88.2302925183,3.0,9,1,"Coffee & Tea, Food, Bubble Tea, Juice Bars & Smoothies"
522,PSxi7pis1yJpFfM-grdNXA,Sol Azteca,405 S Century Blvd,Rantoul,IL,40.3060382272,-88.1557162551,3.5,16,0,"Imported Food, Food, Specialty Food, Ethnic Food, Tex-Mex, Mexican, Restaurants"
523,sOPBbhDCi7bJlW7dNBuITg,A Plus VIP Lounge,214 W Main St,Urbana,IL,40.1126462,-88.209562,3.5,16,1,"Shopping, Pool Halls, Bars, Pool & Billiards, Lounges, Karaoke, Restaurants, Dance Clubs, Event Planning & Services, Nightlife, Venues & Event Spaces, Cafes"
524,rM1soPduv--f7ILhEdb8GQ,Walgreens,407 E Green St,Champaign,IL,40.1099958,-88.2326599,2.5,5,1,"Food, Cosmetics & Beauty Supply, Convenience Stores, Photography Stores & Services, Beauty & Spas, Shopping, Drugstores"
525,1KGLQ6Sxji5jqsQnsC6fdQ,MezzaLuna,2502 Village Green Pl,Champaign,IL,40.081896,-88.295835,3.0,9,0,"Pizza, Italian, Restaurants"
526,JErSU_Mc85FW7YTg2_AtDw,Starbucks,809 S Wright St,Champaign,IL,40.108267,-88.229129,2.0,3,1,"Food, Coffee & Tea"
527,38AI6oP2ObTmtiUuoN0Uvw,Road Ranger,4910 N Market St,Champaign,IL,40.178005,-88.240266,3.0,12,1,"Automotive, Gas Stations, Food, Convenience Stores"
528,-QgoH51lsBKQsg9vZp3b8A,Auntie Anne's,"2000 N Neil St, Ste 260",Champaign,IL,40.142467,-88.243413,3.5,4,1,"Restaurants, Bakeries, Food, Fast Food"
529,u_MdwAj7eGenc0YhqQy6nA,Wingstop,512 S Neil St,Champaign,IL,40.1107138379,-88.2430895568,2.5,51,1,"Chicken Wings, Restaurants, American (New)"
530,NdSfKZuIIrWS1cq9V_9p6Q,Subway Restaurants,122 N Charter St,Monticello,IL,40.0260935,-88.5727816,3.5,3,1,"Restaurants, Fast Food, Sandwiches"
531,xX2uM2EIeR03KrGBCrOrcA,Los Amigos,404 E Green St,Champaign,IL,40.1104696,-88.2331177,4.0,7,0,"Restaurants, Mexican"
532,6d82R41sVNDVS0I-c1Ghkg,Portillo's Hot Dogs,2306 N Prospect Ave,Champaign,IL,40.1442010834,-88.2570338622,3.5,135,1,"Hot Dogs, Restaurants, Burgers, American (New), Fast Food, Salad"
533,gUTz4Y3GIPq8zq1Mi-kHzw,KFC,1321 N. Dunlap Avenue,Savoy,IL,40.070722,-88.249462,2.0,15,0,"Fast Food, Chicken Shop, Chicken Wings, Restaurants"
534,o2zAHduE6ubeqR7kaHzSvQ,Bangkok Thai & PHO 911,1104 N Cunningham Ave,Urbana,IL,40.1236712033,-88.2006709278,3.5,32,1,"Thai, Restaurants"
535,XvhCPxnxDvISSsTpiKuo4w,Chick-fil-A,2301 N Prospect Ave,Champaign,IL,40.143811,-88.258358,3.5,9,1,"Event Planning & Services, Restaurants, Fast Food, Caterers"
536,_sLNLK2ajmXXpsJyGqLo6w,Aldi,605 N Dunlap St,Savoy,IL,40.0606805,-88.2515111,4.5,3,1,"Beer, Wine & Spirits, Meat Shops, Fruits & Veggies, Specialty Food, Grocery, Food"
537,Y2ySw4qMHgjd1T_2Zt9Eeg,TCBY Old Farm,1731 W. Kirby Ave.,Champaign,IL,40.0972080132,-88.2749558324,3.0,12,1,"Ice Cream & Frozen Yogurt, Food, Desserts, Do-It-Yourself Food"
538,SuQpsHxcxCAB8kxPEIXiBg,Wonderdogs,605 S Wright St,Champaign,IL,40.1113062,-88.2289026,4.0,17,0,"Hot Dogs, Restaurants"
539,DLhAuWok29OU8VR-DBxP7A,Monicals Pizza,102 N Sycamore St,Villa Grove,IL,39.863273,-88.1607372,4.5,7,1,"Pizza, Restaurants"
540,rVF2CysgSp8BxdYYF0lEGA,City Girl Yogurt,202 E University Ave,Urbana,IL,40.117735,-88.2059038,3.5,18,1,"Food, Restaurants, Ice Cream & Frozen Yogurt"
541,1qxpl7TaER9i1dxpnLyl2g,Taffies Cafe,608 E Main St,Mahomet,IL,40.19449,-88.400274,3.0,10,0,"Restaurants, Breakfast & Brunch, Coffee & Tea, American (Traditional), American (New), Food, Burgers"
542,mG3SqAh1txeosGJBGfwFTw,Quencher Smoothie's,2000 N Neil St,Champaign,IL,40.142811,-88.242782,3.5,3,1,"Food, Juice Bars & Smoothies"
543,jK8PNNtv4RI6m-xd-tGjPQ,Firehaus,708 S 6th St,Champaign,IL,40.1095997,-88.2301132,3.0,89,0,"American (Traditional), Burgers, Restaurants, Nightlife, Bars"
544,BkqM_Ou82P3gn_PTxEN3pw,Ozu Ramen,"601 S 6th St, Ste 102",Champaign,IL,40.111322,-88.230602,3.5,102,1,"Japanese, Ramen, Asian Fusion, Restaurants"
545,Oo-ZEfbDJw1eiizih7_qWQ,Taipei Cafe,"512 E Green St, Ste C",Champaign,IL,40.1105814,-88.2314749,4.0,17,1,"Shaved Snow, Bubble Tea, Food, Desserts, Coffee & Tea"
546,0aA5l11oXes0aS6mkN5lMQ,Szechuan China,401 S 1st St,Champaign,IL,40.1128063,-88.2391787,3.0,49,1,"Szechuan, Chinese, Restaurants"
547,bP_HZle1uUaILvSaS_cYbQ,Walgreens,1509 S Neil St,Champaign,IL,40.0986657,-88.2451296,2.5,11,1,"Drugstores, Shopping, Beauty & Spas, Cosmetics & Beauty Supply, Food, Convenience Stores"
548,yiWYJnHngOJWuP_CFP6Itw,Jimmy John's,1801 W Springfield Ave,Champaign,IL,40.112499,-88.2772528,3.5,10,1,"Food, Sandwiches, Fast Food, Delis, Restaurants, Food Delivery Services"
549,PyUzLJdol6u2sSxEmJK5Cg,Neil St Blues,"301 N Neil St, Ste 106",Champaign,IL,40.1189773,-88.2442721,3.5,33,1,"American (Traditional), Restaurants, Jazz & Blues, Music Venues, Seafood, Arts & Entertainment, Nightlife, Cocktail Bars, Dance Clubs, Bars"
550,yE4k_CM9L0yPVVozyELfSQ,Noodles & Company,528 East Grn,Champaign,IL,40.1104555,-88.2305861,3.0,52,1,"Comfort Food, Italian, Restaurants, Noodles, Asian Fusion, Food, Salad, Pasta Shops, Specialty Food"
551,I2EHSRP50SXxvfoWc8MIWw,Little Caesar's Pizza,1211 S Mattis,Champaign,IL,40.102573,-88.276899,3.0,9,1,"Restaurants, Pizza"
552,zrtRx2bm55zVeYIpzLLm3w,Niro's Gyros,2001 W Springfield Ave,Champaign,IL,40.1125121,-88.2804412,3.0,48,1,"Greek, Restaurants"
553,Epr8Ft7LwYAzotFwxQX6uw,Latea Bubble Tea Lounge,"601 S 6th St, Ste 105",Champaign,IL,40.111167,-88.230671,4.0,79,1,"Taiwanese, Food, Desserts, Bubble Tea, Restaurants"
554,zPPw_vUatLmvnRpW1OoX6w,Am-Ko Oriental Foods & Gifts,101 E Springfield Ave,Champaign,IL,40.1121971,-88.2384927,3.5,31,1,"Grocery, Food"
555,8BUVhDF9yLzzthhFxeceYA,Murphy's Deli,40 E Springfield Ave,Champaign,IL,40.1127011,-88.2407279,4.5,3,0,"Delis, Restaurants"
556,NaWKnU8vVZtDpUVaV7roKQ,Bombay Market,1726 W Bradley Ave,Champaign,IL,40.1278529926,-88.276123479,3.5,3,1,"Food, Grocery, Specialty Food"
557,NR8k-wkG1rObtnPIJTKMvw,Espresso Royale,500 E Peabody Dr,Champaign,IL,40.101862,-88.2317371,2.5,7,1,"Food, Coffee & Tea"
558,O3zVw-VAcJi8ta4B6v5iAA,Sun Singer Wine and Spirits,1115 W Windsor Rd,Champaign,IL,40.083431,-88.263944,4.0,111,1,"Restaurants, American (Traditional), Sandwiches, Nightlife, Bars, Specialty Food, Delis, Food, Cheese Shops, Wine Bars, Beer, Wine & Spirits"
559,PmVxbit6HDDsEUS-j9aDfg,Billy Barooz Bar & Grill,2521 Village Green Pl,Champaign,IL,40.081322,-88.296709,3.5,93,1,"Restaurants, American (Traditional), American (New), Bars, Nightlife, Sports Bars, Breakfast & Brunch"
560,U8VXQaeog9wb_Y6hCkfitg,Super Taco,523 W Town Center Blvd,Champaign,IL,40.141473691,-88.2520852472,3.5,37,1,"Restaurants, Mexican"
561,DDm_333l9fHzlv7yfuF5dQ,Arby's,2310 S Neil St,Champaign,IL,40.0846950551,-88.2462913487,2.5,7,1,"American (New), Fast Food, Sandwiches, Restaurants"
562,V1xbBbDaZeMwWoFYLruYFg,Pink Pig BBQ,2698 County Road 1600 N,Ogden,IL,40.1116454162,-87.9590088889,3.5,20,1,"Barbeque, Restaurants, Burgers, American (Traditional)"
563,pLBF8QrRkMicJcsjAqW7ag,Walnut Street Tea,115 S Walnut St,Champaign,IL,40.1154721496,-88.2432021594,4.0,26,1,"Food, Coffee & Tea, Restaurants, Herbs & Spices, Specialty Food"
564,FsnwQwatA43aeGhJlxQ_Kg,Paris Super Crepes,"601 S 6th St, Ste 106",Champaign,IL,40.1112889,-88.2305908,4.5,54,1,"Desserts, Restaurants, Ice Cream & Frozen Yogurt, Food, Creperies"
565,cDGaMsCAx8guR1IUrxLxWA,Pho Cafe,"611 E Green St, Ste B",Champaign,IL,40.1100759,-88.229804,4.0,53,1,"Vietnamese, Thai, Restaurants"
566,FUr2uEolARu7rv2TQYKPqg,Za's Italian Cafe,2006 W Springfield Ave,Champaign,IL,40.113247,-88.2819785,3.5,47,0,"Restaurants, American (Traditional)"
567,leoEzfEj27czYZEgBJdK5w,Prairie Fruits Farm & Creamery,4410 N Lincoln Ave,Champaign,IL,40.1622186,-88.2099078,5.0,16,1,"Ice Cream & Frozen Yogurt, Cheese Shops, Farmers Market, Arts & Entertainment, Food, Specialty Food, Farms"
568,6U8Yniq8cMQcedhs040ZoA,Moonstruck Chocolate Cafe,709 S Wright St,Champaign,IL,40.109995,-88.22911,3.0,11,0,"Coffee & Tea, Specialty Food, Candy Stores, Food"
569,zYb8dR4tsolqeJRj8x4tdw,Dumpling Noodle BBQ,715 S Neil St,Champaign,IL,40.1077197457,-88.2436650619,3.0,20,1,"Barbeque, Restaurants, Noodles, Chinese"
570,VZtXF2A-MNt5J6d6ih7tkA,Aldi Grocery,3102 E University Ave,Urbana,IL,40.1139068604,-88.1641921997,4.5,10,1,"Food, Grocery"
571,7U7uLS9YjjhBM1SoyNH30w,Basmati Indian Cuisine,302 S 1st St,Champaign,IL,40.114132,-88.238369,2.5,3,0,"Indian, Pakistani, Vegetarian, Restaurants"
572,bXHbLuxyBZemyB0j7GJbTA,Boneyard Bar & Bbq,25 E Springfield,Champaign,IL,40.112114,-88.241292,3.0,5,0,"Sports Bars, Barbeque, Bars, Restaurants, Nightlife"
573,UITomlnpbixMcYNXsVV9Rg,Schnucks Champaign Pharmacy,109 N Mattis Ave,Champaign,IL,40.117002,-88.278708,3.5,22,1,"Food, Flowers & Gifts, Pharmacy, Bakeries, Florists, Grocery, Drugstores, Health & Medical, Shopping"
574,Sp32-I-Ej0CBVJvFCghyPw,Fresh International Market,"505 S Neil St, Unit 4",Champaign,IL,40.1110535,-88.2441408,4.5,27,1,"Specialty Food, Restaurants, Food Court, Grocery, International Grocery, Food"
575,hJ88unGZxRYN85XQ0qAS4g,Binny's Beverage Depot,802 Town Center Blvd,Champaign,IL,40.1435608,-88.256917,4.5,25,1,"Food, Beer, Wine & Spirits, Bars, Tobacco Shops, Shopping, Nightlife"
576,aCu7P6VZLefnXGYjVejwsA,Sidney Saloon,204 S David St,Sidney,IL,40.0246558276,-88.0731402908,4.5,3,1,"Restaurants, Pizza, Sandwiches, Nightlife, Bars"
577,gGqI0E65Pt6PE3moPlN4Yw,Crave Truck,,Champaign,IL,40.1539406,-88.3433623,4.5,9,0,"Food, Street Vendors"
578,PiD4hteskHnFC4GowN34cw,Espresso Royale,1411 S Neil St,Champaign,IL,40.0994856,-88.2448063,3.0,35,1,"Coffee & Tea, Food, Restaurants"
579,c2uAqJ2REpLMCZO2jxdi9w,Five Guys,901 B West Anthony Dr,Champaign,IL,40.1374723,-88.2586063,2.5,40,1,"American (Traditional), Burgers, Restaurants, American (New), Fast Food"
580,yLKoESPQ8BN7dn6ADzZicQ,Casablanca Kabab House,623 E Green St,Champaign,IL,40.1102799,-88.2298014,3.5,43,0,"Vegetarian, Restaurants, Middle Eastern, Ethnic Food, Specialty Food, Food, Indian, Moroccan"
581,iO86eCaZJBHqi1sZ1ELk6A,TGI Fridays,103 W Marketview Dr,Champaign,IL,40.1375274658,-88.245300293,3.0,71,1,"Restaurants, American (Traditional), Nightlife, Bars"
582,fbQjAy7MTR8hdt4Gg2H_dA,Milk Tea House,"410 E Green St, Ste 2",Champaign,IL,40.1105683,-88.2325823,3.5,17,0,"Juice Bars & Smoothies, Coffee & Tea, Cafes, Restaurants, Bubble Tea, Desserts, Food"
583,TP7bC-U0m5y7V5vncWwziA,El Toro,112 Charter St,Monticello,IL,40.0250287833,-88.572935127,3.5,11,0,"Mexican, Restaurants"
584,_a6jhRFIgOe74U73T5B-Ww,Fiesta Cafe,216 S 1st St,Champaign,IL,40.114786,-88.2384767,3.5,96,1,"Mexican, Restaurants"
585,EKQiKd7EMZjsa4JokFaeAg,China King,2145 S Neil St,Champaign,IL,40.0877237618,-88.2479701689,2.5,32,1,"Restaurants, Chinese"
586,KpVNHvN_3mVM4ubilE1_1Q,Kaffee Mahomet,202 Eastwood Dr,Mahomet,IL,40.1961720577,-88.3952219412,4.0,6,1,"Cafes, Coffee & Tea, Flowers & Gifts, Food, Gift Shops, Shopping, Restaurants, Internet Cafes"
587,FTky74MxFIMvAJepeUUzEQ,The Cookie Jar,712 S 6th St,Champaign,IL,40.1094523,-88.230229,4.5,19,0,"Bakeries, Food"
588,Wq84zy8_rw1IkAqPcPqJ9g,Das Cafe,119 W Main St,Urbana,IL,40.1124516,-88.2082596,4.0,21,0,"German, Restaurants, Breakfast & Brunch"
589,xeN57OX3lJfY96nfEx63fg,Garcia's Pizza In A Pan,313 N Mattis Ave,Champaign,IL,40.119587,-88.27748,3.0,54,1,"Event Planning & Services, Caterers, Restaurants, Pizza"
590,aFJ8NSdpJi9LcaMm6ICowQ,Burger King,2110 North Prospect Ave,Champaign,IL,40.1421056,-88.2572022,1.5,18,1,"Burgers, Restaurants, Fast Food"
591,jWCsqEapBhVHyBQYp23VVA,Las Maria's Mexican Restaurant,112 S Charter St,Monticello,IL,40.0250554,-88.5730835,3.0,8,1,"Mexican, Caterers, Event Planning & Services, Restaurants"
592,N9bjF5E2ms6fSWEMmvt39w,Pickles,505 S Neil St,Champaign,IL,40.1111456,-88.2441689,2.0,4,0,"American (Traditional), Burgers, Sandwiches, Restaurants, Diners"
593,MqhxKfI7oMjUTMqH2gnhyg,McDonald's,1812 N Neil,Champaign,IL,40.1375695808,-88.2430710516,1.5,21,1,"Fast Food, Food, Restaurants, Coffee & Tea, Burgers"
594,swdilw4Vbk-196sTVdMo-A,Walgreens,2402 Village Green Pl,Champaign,IL,40.0832537,-88.2959071,2.0,10,1,"Cosmetics & Beauty Supply, Beauty & Spas, Food, Convenience Stores, Drugstores, Photography Stores & Services, Shopping"
595,8GUMO244E8CxfJcyJIWFOA,El Charro,55 E Green St,Champaign,IL,40.1100851,-88.2395728,3.5,58,0,"Mexican, Grocery, Restaurants, Food"
596,E1R-eyNDimJzdtajqh9KsQ,Jack's Grill & Mediterranean Cuisine,705 N Neil St,Champaign,IL,40.1221403,-88.243543,3.5,8,0,"Restaurants, Mediterranean, Burgers"
597,-PBIdZVMvKaOs6Kbn1kFkQ,Walmart Supercenter,100 S High Cross Rd,Urbana,IL,40.1116532,-88.1593408,2.0,9,1,"Electronics, Discount Store, Fashion, Shopping, Department Stores, Drugstores, Food, Grocery"
598,Cqqd6l6jSx7pOnsgtLp_dQ,Schnucks Savoy,1301 Savoy Plaza Ctr,Savoy,IL,40.0703839,-88.2517425,3.5,9,1,"Pharmacy, Bakeries, Health & Medical, Food, Grocery, Beer, Wine & Spirits"
599,6ockUmdOBYBApEsUCJkBzA,El Oasis,510 N Cunningham Ave,Urbana,IL,40.117278,-88.203156,4.5,93,1,"Imported Food, Mexican, Restaurants, Ethnic Food, Specialty Food, Ice Cream & Frozen Yogurt, Food"
600,Q8kTugdx8Iw5AzRzz6qd8w,Chester's BBQ,302 S Neil St,Champaign,IL,40.113786,-88.243041,4.0,9,1,"Restaurants, Food Trucks, Barbeque, Street Vendors, Food"
601,RnGG5bAz4nTPo_Ui99Kzbg,Le Peep Restaurant,2209 S Neil St,Champaign,IL,40.086871,-88.248177,3.5,129,1,"American (New), American (Traditional), Coffee & Tea, Food, Cafes, Restaurants, Breakfast & Brunch"
602,SUktrYdNQD8k2vvkM4OpfA,Peking Garden Restaurant,206 N Randolph St,Champaign,IL,40.1178481689,-88.2451191659,4.0,78,1,"Chinese, Restaurants"
603,PD2MAlYYi9HCqPH7IBKwTg,La Bamba,606 S 6th St,Champaign,IL,40.111016,-88.230183,4.0,18,0,"Restaurants, Mexican"
604,S27XLKsX1B-scfdDQ4rTGQ,Hardee's,1201 N Mattis Ave,Champaign,IL,40.1278221,-88.2796597,2.0,4,1,"Restaurants, American (New), Food"
605,gOMc2QcDaMIOkIVTShqoYA,Firehouse Subs,803 W Anthony Dr,Champaign,IL,40.136805,-88.257355,3.5,28,1,"Delis, Sandwiches, Restaurants, Fast Food"
606,iFWc6PuTA_mKr9liDeIQqw,GFS,502 Wtown Center Blvd,Champaign,IL,40.142598,-88.250968,3.5,6,1,"Grocery, Food"
607,Q2bnRzJ8AC-3lWyQY8DZqA,Blues,1103 W. Oregon St.,Urbana,IL,40.1068632,-88.2218637,2.5,8,0,"Barbeque, Restaurants"
608,FUTAQs8NEgpiQUXISaXfLg,Burger King,1325 N Dunlap Ave,Savoy,IL,40.0706497611,-88.2489681244,2.0,15,1,"Restaurants, Fast Food, Burgers, Food"
609,Pgbnj8TaADhaatrRTE0IVQ,County Market Discount Foods,1819 Philo Rd,Urbana,IL,40.0952257,-88.1930909,2.0,5,0,"Florists, Food, Bakeries, Restaurants, Shopping, Flowers & Gifts, Grocery"
610,-hliqBp7tq7Z5XLaTLAXAg,Taffies Restaurant,301 S Mattis Ave,Champaign,IL,40.1145467413,-88.2772039646,2.5,16,0,"American (Traditional), Restaurants"
611,IFlSq9YWXHZyLnuh0EffKQ,Main Street Belly Deli,118 S Main St,Homer,IL,40.0356044068,-87.9583024912,4.5,11,1,"Breweries, Coffee & Tea, Food, American (Traditional), Delis, Restaurants"
612,oWQwUw8xfQgi1nVNKgS6vA,Silvercreek,402 N Race St,Urbana,IL,40.115461,-88.2086039,3.5,159,1,"Venues & Event Spaces, Event Planning & Services, Bakeries, Food, American (New), Restaurants, Breakfast & Brunch"
613,PEhxp_opBLM2rNio_xKouA,It'll Do Bar & Grill,215 S Lake Of The Woods Rd,Mahomet,IL,40.194856,-88.3854291,4.0,5,1,"American (Traditional), Pool Halls, Restaurants, Beer Bar, Sports Bars, Nightlife, Bars"
614,-A4suUjxa7gNaiUMDjO42g,Farmhouse Restaurant At Harvest Market,2029 South Neil St,Champaign,IL,40.0906455272,-88.2477702837,2.5,15,1,"Restaurants, Delis, American (Traditional), Breakfast & Brunch"
615,tDTUSKxPUUkpFaxBZZl4Cw,Aldi,701 N Mattis Ave,Champaign,IL,40.122891,-88.277627,5.0,6,0,"Food, Grocery"
616,dA9xisX951rOnx8IGLPfjw,Fat City Bar and Grill,505 S Chestnut St,Champaign,IL,40.110967,-88.2427527,4.5,11,1,"Sports Bars, Bars, Food, Nightlife, Beer, Wine & Spirits"
617,6nMYROXu0VX4Ytpdsfi3XA,Pie's the Limit,2510 Village Green Pl,Champaign,IL,40.0816433,-88.296002,4.5,56,0,"Pasta Shops, Salad, Restaurants, Food, Pizza, Specialty Food"
618,C31ExBTn_6UxbTVkWPtNkg,Yellowfin Japanese Restaurant,305 Cedar St,Champaign,IL,40.0987255,-88.2470903,3.5,100,0,"Sushi Bars, Restaurants, Korean, Japanese"
619,ovApUucCKSb9k0lTP2JieQ,Huaraches Moroleon,805 Philo Rd,Urbana,IL,40.1058258,-88.1951387,4.5,222,1,"Mexican, Restaurants"
620,OC5BqhpPhnJJr7IXLsXIbg,Papa D's Bar & Grill,401 E Green St,Champaign,IL,40.1102514,-88.2335202,2.0,8,0,"Bars, American (New), Nightlife, Restaurants"
621,p0LusgO7QmgxJF0XenzJfA,Dairy Queen,1501 Lyndhurst Aly,Savoy,IL,40.0736197562,-88.2510522008,2.5,14,1,"Food, Ice Cream & Frozen Yogurt, Restaurants, Burgers, Fast Food"
622,0tU2xdfTSfz-BwD4VhtVAQ,Mas Amigos,705 N Neil St,Champaign,IL,40.122452,-88.2440267,4.5,15,0,"Restaurants, Mexican"
623,m6nLTIrEJHtHSYJjVavnzw,Kohinoor Indian Restaurant and Lounge,6 E Columbia Ave,Champaign,IL,40.12125533,-88.2427998586,4.5,186,1,"Indian, Nightlife, Restaurants, Bars"
624,Zjv2tMXDaIGd-13tgOoKAA,Hybrid Fit Food,"410 East University Ave, Ste 101",Champaign,IL,40.1165621,-88.2328063,4.5,10,0,"Burgers, Food, Salad, Restaurants, Sandwiches, Juice Bars & Smoothies, Internet Cafes"
625,rP-MueqMyZbiDbOEUELXtQ,Snow Meets Coffee,"1 E Main St, Ste 108",Champaign,IL,40.118413,-88.2430914,4.5,64,0,"Food, Coffee & Tea, Desserts, Shaved Ice, Ice Cream & Frozen Yogurt"
626,8ztbiTDIi-2yQLVul58c5w,Doughbelly Subs,2504 Village Green Pl,Champaign,IL,40.0818606,-88.2963455,4.0,5,0,"Delis, Sandwiches, Restaurants"
627,nf8cdI8ntEBHHklZq2uuJA,FOUR,401 E Green St,Champaign,IL,40.110008,-88.233253,3.0,12,1,"Food, Cafes, Bakeries, Restaurants, Breakfast & Brunch"
628,qFwc6pD29qnTgd9tZDRYig,Panera Bread,616 E Green St,Champaign,IL,40.1104259,-88.2293502,2.5,26,1,"Breakfast & Brunch, Soup, Salad, Food, Bagels, Restaurants, Sandwiches, Bakeries"
629,kyXEnWKQGWSThY6EcjORuw,Zorba's Restaurant,627 E Green St,Champaign,IL,40.1101284,-88.2292884,3.5,135,1,"Salad, Restaurants, Mediterranean, Greek"
